{"type":"FeatureCollection","id":"Blade Runner Black Lotus","swarm_features":84,"features":[{"type":"Feature","properties":{"country_code":"USA","city":"Ashburn","geoname_id":"4744870","downloaders":"{\"size\":59504,\"mobile\":170,\"satellite\":0,\"tor\":0,\"tor_exit_nodes\":0,\"vpn\":856,\"relay\":0,\"proxy\":0,\"hosting\":58537,\"service\":793}","uploaders":"{\"size\":22489,\"mobile\":23,\"satellite\":0,\"tor\":0,\"tor_exit_nodes\":0,\"vpn\":188,\"relay\":0,\"proxy\":0,\"hosting\":22325,\"service\":170}"},"geometry":{"type":"Point","coordinates":[-77.48749,39.04372]}},{"type":"Feature","properties":{"country_code":"CHN","city":"Shanghai","geoname_id":"1796236","downloaders":"{\"size\":36309,\"mobile\":208,\"satellite\":0,\"tor\":0,\"tor_exit_nodes\":0,\"vpn\":211,\"relay\":0,\"proxy\":0,\"hosting\":522,\"service\":0}","uploaders":"{\"size\":7076,\"mobile\":46,\"satellite\":0,\"tor\":0,\"tor_exit_nodes\":0,\"vpn\":53,\"relay\":0,\"proxy\":0,\"hosting\":135,\"service\":0}"},"geometry":{"type":"Point","coordinates":[121.45806,31.22222]}},{"type":"Feature","properties":{"country_code":"RUS","city":"Moscow","geoname_id":"524901","downloaders":"{\"size\":32378,\"mobile\":854,\"satellite\":0,\"tor\":0,\"tor_exit_nodes\":0,\"vpn\":1077,\"relay\":0,\"proxy\":4,\"hosting\":3947,\"service\":81}","uploaders":"{\"size\":1242,\"mobile\":41,\"satellite\":0,\"tor\":0,\"tor_exit_nodes\":0,\"vpn\":25,\"relay\":0,\"proxy\":0,\"hosting\":192,\"service\":8}"},"geometry":{"type":"Point","coordinates":[37.61556,55.75222]}},{"type":"Feature","properties":{"country_code":"GBR","city":"London","geoname_id":"2643743","downloaders":"{\"size\":22969,\"mobile\":1523,\"satellite\":8,\"tor\":0,\"tor_exit_nodes\":0,\"vpn\":7267,\"relay\":36,\"proxy\":12,\"hosting\":10946,\"service\":6194}","uploaders":"{\"size\":4754,\"mobile\":222,\"satellite\":0,\"tor\":0,\"tor_exit_nodes\":0,\"vpn\":1607,\"relay\":10,\"proxy\":1,\"hosting\":2351,\"service\":1322}"},"geometry":{"type":"Point","coordinates":[-0.12574,51.50853]}},{"type":"Feature","properties":{"country_code":"NLD","city":"Amsterdam","geoname_id":"2759794","downloaders":"{\"size\":16415,\"mobile\":420,\"satellite\":0,\"tor\":1,\"tor_exit_nodes\":1,\"vpn\":4419,\"relay\":0,\"proxy\":28,\"hosting\":12655,\"service\":3204}","uploaders":"{\"size\":3478,\"mobile\":115,\"satellite\":0,\"tor\":0,\"tor_exit_nodes\":0,\"vpn\":1030,\"relay\":0,\"proxy\":4,\"hosting\":2559,\"service\":836}"},"geometry":{"type":"Point","coordinates":[4.88969,52.37403]}},{"type":"Feature","properties":{"country_code":"KOR","city":"Seoul","geoname_id":"1835848","downloaders":"{\"size\":14935,\"mobile\":141,\"satellite\":0,\"tor\":0,\"tor_exit_nodes\":0,\"vpn\":163,\"relay\":0,\"proxy\":0,\"hosting\":454,\"service\":50}","uploaders":"{\"size\":643,\"mobile\":10,\"satellite\":0,\"tor\":0,\"tor_exit_nodes\":0,\"vpn\":12,\"relay\":0,\"proxy\":0,\"hosting\":23,\"service\":4}"},"geometry":{"type":"Point","coordinates":[126.9784,37.566]}},{"type":"Feature","properties":{"country_code":"USA","city":"New York City","geoname_id":"5128581","downloaders":"{\"size\":14484,\"mobile\":447,\"satellite\":1,\"tor\":4,\"tor_exit_nodes\":5,\"vpn\":7215,\"relay\":0,\"proxy\":0,\"hosting\":8384,\"service\":6436}","uploaders":"{\"size\":2168,\"mobile\":51,\"satellite\":0,\"tor\":0,\"tor_exit_nodes\":0,\"vpn\":1271,\"relay\":0,\"proxy\":0,\"hosting\":1435,\"service\":1148}"},"geometry":{"type":"Point","coordinates":[-74.00597,40.71427]}},{"type":"Feature","properties":{"country_code":"RUS","city":"Saint Petersburg","geoname_id":"498817","downloaders":"{\"size\":12773,\"mobile\":476,\"satellite\":0,\"tor\":0,\"tor_exit_nodes\":0,\"vpn\":203,\"relay\":0,\"proxy\":0,\"hosting\":806,\"service\":12}","uploaders":"{\"size\":429,\"mobile\":39,\"satellite\":0,\"tor\":0,\"tor_exit_nodes\":0,\"vpn\":7,\"relay\":0,\"proxy\":0,\"hosting\":70,\"service\":2}"},"geometry":{"type":"Point","coordinates":[30.31413,59.93863]}},{"type":"Feature","properties":{"country_code":"CAN","city":"Toronto","geoname_id":"6167865","downloaders":"{\"size\":11388,\"mobile\":292,\"satellite\":0,\"tor\":14,\"tor_exit_nodes\":67,\"vpn\":4393,\"relay\":10,\"proxy\":0,\"hosting\":7622,\"service\":4347}","uploaders":"{\"size\":2802,\"mobile\":49,\"satellite\":0,\"tor\":3,\"tor_exit_nodes\":17,\"vpn\":1078,\"relay\":0,\"proxy\":0,\"hosting\":1830,\"service\":1065}"},"geometry":{"type":"Point","coordinates":[-79.39864,43.70643]}},{"type":"Feature","properties":{"country_code":"ESP","city":"Madrid","geoname_id":"3117735","downloaders":"{\"size\":10466,\"mobile\":3397,\"satellite\":7,\"tor\":0,\"tor_exit_nodes\":0,\"vpn\":1595,\"relay\":0,\"proxy\":0,\"hosting\":2277,\"service\":1440}","uploaders":"{\"size\":2533,\"mobile\":845,\"satellite\":4,\"tor\":0,\"tor_exit_nodes\":0,\"vpn\":287,\"relay\":0,\"proxy\":0,\"hosting\":414,\"service\":266}"},"geometry":{"type":"Point","coordinates":[-3.70256,40.4165]}},{"type":"Feature","properties":{"country_code":"CHN","city":"Shenzhen","geoname_id":"1795565","downloaders":"{\"size\":10170,\"mobile\":52,\"satellite\":0,\"tor\":0,\"tor_exit_nodes\":0,\"vpn\":137,\"relay\":0,\"proxy\":0,\"hosting\":138,\"service\":0}","uploaders":"{\"size\":1932,\"mobile\":22,\"satellite\":0,\"tor\":0,\"tor_exit_nodes\":0,\"vpn\":16,\"relay\":0,\"proxy\":0,\"hosting\":29,\"service\":0}"},"geometry":{"type":"Point","coordinates":[114.0683,22.54554]}},{"type":"Feature","properties":{"country_code":"USA","city":"Los Angeles","geoname_id":"5368361","downloaders":"{\"size\":9451,\"mobile\":329,\"satellite\":0,\"tor\":0,\"tor_exit_nodes\":0,\"vpn\":5349,\"relay\":0,\"proxy\":5,\"hosting\":6989,\"service\":4699}","uploaders":"{\"size\":1568,\"mobile\":22,\"satellite\":0,\"tor\":0,\"tor_exit_nodes\":0,\"vpn\":905,\"relay\":0,\"proxy\":0,\"hosting\":1297,\"service\":829}"},"geometry":{"type":"Point","coordinates":[-118.2385,34.0614]}},{"type":"Feature","properties":{"country_code":"FRA","city":"Paris","geoname_id":"2988507","downloaders":"{\"size\":9239,\"mobile\":875,\"satellite\":1,\"tor\":0,\"tor_exit_nodes\":0,\"vpn\":1949,\"relay\":0,\"proxy\":0,\"hosting\":3879,\"service\":1562}","uploaders":"{\"size\":1026,\"mobile\":131,\"satellite\":1,\"tor\":0,\"tor_exit_nodes\":0,\"vpn\":313,\"relay\":0,\"proxy\":0,\"hosting\":432,\"service\":272}"},"geometry":{"type":"Point","coordinates":[2.3488,48.85341]}},{"type":"Feature","properties":{"country_code":"CHN","city":"Beijing","geoname_id":"1816670","downloaders":"{\"size\":8960,\"mobile\":0,\"satellite\":0,\"tor\":0,\"tor_exit_nodes\":0,\"vpn\":78,\"relay\":0,\"proxy\":0,\"hosting\":876,\"service\":2}","uploaders":"{\"size\":1796,\"mobile\":0,\"satellite\":0,\"tor\":0,\"tor_exit_nodes\":0,\"vpn\":19,\"relay\":0,\"proxy\":0,\"hosting\":245,\"service\":0}"},"geometry":{"type":"Point","coordinates":[116.39723,39.9075]}},{"type":"Feature","properties":{"country_code":"AUS","city":"Sydney","geoname_id":"2147714","downloaders":"{\"size\":8889,\"mobile\":805,\"satellite\":24,\"tor\":0,\"tor_exit_nodes\":0,\"vpn\":3143,\"relay\":0,\"proxy\":0,\"hosting\":3651,\"service\":2801}","uploaders":"{\"size\":2581,\"mobile\":238,\"satellite\":8,\"tor\":0,\"tor_exit_nodes\":0,\"vpn\":653,\"relay\":0,\"proxy\":0,\"hosting\":761,\"service\":618}"},"geometry":{"type":"Point","coordinates":[151.2073,-33.8678]}},{"type":"Feature","properties":{"country_code":"CAN","city":"Montréal","geoname_id":"6077243","downloaders":"{\"size\":7811,\"mobile\":292,\"satellite\":0,\"tor\":0,\"tor_exit_nodes\":0,\"vpn\":3170,\"relay\":0,\"proxy\":0,\"hosting\":4351,\"service\":3080}","uploaders":"{\"size\":1521,\"mobile\":63,\"satellite\":0,\"tor\":0,\"tor_exit_nodes\":0,\"vpn\":673,\"relay\":0,\"proxy\":0,\"hosting\":958,\"service\":638}"},"geometry":{"type":"Point","coordinates":[-73.58781,45.50884]}},{"type":"Feature","properties":{"country_code":"HKG","city":"Hong Kong","geoname_id":"1819729","downloaders":"{\"size\":7369,\"mobile\":82,\"satellite\":0,\"tor\":0,\"tor_exit_nodes\":0,\"vpn\":647,\"relay\":0,\"proxy\":2,\"hosting\":3784,\"service\":535}","uploaders":"{\"size\":997,\"mobile\":20,\"satellite\":0,\"tor\":0,\"tor_exit_nodes\":0,\"vpn\":131,\"relay\":0,\"proxy\":0,\"hosting\":466,\"service\":117}"},"geometry":{"type":"Point","coordinates":[114.17469,22.27832]}},{"type":"Feature","properties":{"country_code":"USA","city":"Dallas","geoname_id":"4684888","downloaders":"{\"size\":7176,\"mobile\":140,\"satellite\":4,\"tor\":0,\"tor_exit_nodes\":0,\"vpn\":3209,\"relay\":0,\"proxy\":0,\"hosting\":4909,\"service\":3133}","uploaders":"{\"size\":1376,\"mobile\":10,\"satellite\":2,\"tor\":0,\"tor_exit_nodes\":0,\"vpn\":884,\"relay\":0,\"proxy\":0,\"hosting\":893,\"service\":864}"},"geometry":{"type":"Point","coordinates":[-96.80667,32.78306]}},{"type":"Feature","properties":{"country_code":"KEN","city":"Nairobi","geoname_id":"184745","downloaders":"{\"size\":7054,\"mobile\":3902,\"satellite\":0,\"tor\":0,\"tor_exit_nodes\":0,\"vpn\":80,\"relay\":0,\"proxy\":0,\"hosting\":129,\"service\":20}","uploaders":"{\"size\":1436,\"mobile\":587,\"satellite\":0,\"tor\":0,\"tor_exit_nodes\":0,\"vpn\":19,\"relay\":0,\"proxy\":0,\"hosting\":40,\"service\":7}"},"geometry":{"type":"Point","coordinates":[36.81667,-1.28333]}},{"type":"Feature","properties":{"country_code":"HUN","city":"Budapest","geoname_id":"3054643","downloaders":"{\"size\":6841,\"mobile\":244,\"satellite\":0,\"tor\":0,\"tor_exit_nodes\":0,\"vpn\":531,\"relay\":0,\"proxy\":0,\"hosting\":607,\"service\":393}","uploaders":"{\"size\":743,\"mobile\":41,\"satellite\":0,\"tor\":0,\"tor_exit_nodes\":0,\"vpn\":106,\"relay\":0,\"proxy\":0,\"hosting\":98,\"service\":97}"},"geometry":{"type":"Point","coordinates":[19.04045,47.49835]}},{"type":"Feature","properties":{"country_code":"BRA","city":"São Paulo","geoname_id":"3448439","downloaders":"{\"size\":6788,\"mobile\":888,\"satellite\":4,\"tor\":0,\"tor_exit_nodes\":0,\"vpn\":740,\"relay\":0,\"proxy\":0,\"hosting\":1421,\"service\":696}","uploaders":"{\"size\":1691,\"mobile\":191,\"satellite\":0,\"tor\":0,\"tor_exit_nodes\":0,\"vpn\":145,\"relay\":0,\"proxy\":0,\"hosting\":253,\"service\":140}"},"geometry":{"type":"Point","coordinates":[-46.63611,-23.5475]}},{"type":"Feature","properties":{"country_code":"AUS","city":"Melbourne","geoname_id":"2158177","downloaders":"{\"size\":6178,\"mobile\":460,\"satellite\":7,\"tor\":0,\"tor_exit_nodes\":0,\"vpn\":1420,\"relay\":0,\"proxy\":0,\"hosting\":2063,\"service\":1268}","uploaders":"{\"size\":1835,\"mobile\":109,\"satellite\":2,\"tor\":0,\"tor_exit_nodes\":0,\"vpn\":376,\"relay\":0,\"proxy\":0,\"hosting\":492,\"service\":332}"},"geometry":{"type":"Point","coordinates":[144.96332,-37.814]}},{"type":"Feature","properties":{"country_code":"SGP","city":"Singapore","geoname_id":"1880252","downloaders":"{\"size\":6103,\"mobile\":545,\"satellite\":1,\"tor\":0,\"tor_exit_nodes\":0,\"vpn\":2181,\"relay\":0,\"proxy\":0,\"hosting\":4230,\"service\":2144}","uploaders":"{\"size\":1088,\"mobile\":86,\"satellite\":0,\"tor\":0,\"tor_exit_nodes\":0,\"vpn\":477,\"relay\":0,\"proxy\":0,\"hosting\":696,\"service\":473}"},"geometry":{"type":"Point","coordinates":[103.7907,1.2959]}},{"type":"Feature","properties":{"country_code":"CHN","city":"Nanjing","geoname_id":"1799962","downloaders":"{\"size\":6075,\"mobile\":0,\"satellite\":0,\"tor\":0,\"tor_exit_nodes\":0,\"vpn\":65,\"relay\":0,\"proxy\":0,\"hosting\":4,\"service\":0}","uploaders":"{\"size\":1044,\"mobile\":0,\"satellite\":0,\"tor\":0,\"tor_exit_nodes\":0,\"vpn\":11,\"relay\":0,\"proxy\":0,\"hosting\":1,\"service\":0}"},"geometry":{"type":"Point","coordinates":[118.77778,32.06167]}},{"type":"Feature","properties":{"country_code":"DEU","city":"Frankfurt am Main","geoname_id":"2925533","downloaders":"{\"size\":5910,\"mobile\":56,\"satellite\":0,\"tor\":0,\"tor_exit_nodes\":0,\"vpn\":2277,\"relay\":0,\"proxy\":0,\"hosting\":5549,\"service\":2205}","uploaders":"{\"size\":1062,\"mobile\":1,\"satellite\":0,\"tor\":0,\"tor_exit_nodes\":0,\"vpn\":559,\"relay\":0,\"proxy\":0,\"hosting\":1015,\"service\":547}"},"geometry":{"type":"Point","coordinates":[8.68417,50.11552]}},{"type":"Feature","properties":{"country_code":"USA","city":"Chicago","geoname_id":"4887398","downloaders":"{\"size\":5897,\"mobile\":292,\"satellite\":4,\"tor\":0,\"tor_exit_nodes\":2,\"vpn\":2576,\"relay\":13,\"proxy\":1,\"hosting\":3505,\"service\":2549}","uploaders":"{\"size\":1059,\"mobile\":45,\"satellite\":0,\"tor\":0,\"tor_exit_nodes\":0,\"vpn\":480,\"relay\":0,\"proxy\":0,\"hosting\":655,\"service\":479}"},"geometry":{"type":"Point","coordinates":[-87.65005,41.85003]}},{"type":"Feature","properties":{"country_code":"ZAF","city":"Johannesburg","geoname_id":"993800","downloaders":"{\"size\":5785,\"mobile\":3075,\"satellite\":0,\"tor\":0,\"tor_exit_nodes\":0,\"vpn\":84,\"relay\":0,\"proxy\":0,\"hosting\":988,\"service\":60}","uploaders":"{\"size\":1304,\"mobile\":522,\"satellite\":0,\"tor\":0,\"tor_exit_nodes\":0,\"vpn\":15,\"relay\":0,\"proxy\":0,\"hosting\":268,\"service\":14}"},"geometry":{"type":"Point","coordinates":[28.04363,-26.20227]}},{"type":"Feature","properties":{"country_code":"RUS","city":"Yekaterinburg","geoname_id":"1486209","downloaders":"{\"size\":5621,\"mobile\":276,\"satellite\":0,\"tor\":0,\"tor_exit_nodes\":0,\"vpn\":165,\"relay\":0,\"proxy\":0,\"hosting\":316,\"service\":5}","uploaders":"{\"size\":140,\"mobile\":10,\"satellite\":0,\"tor\":0,\"tor_exit_nodes\":0,\"vpn\":1,\"relay\":0,\"proxy\":0,\"hosting\":4,\"service\":1}"},"geometry":{"type":"Point","coordinates":[60.6122,56.8519]}},{"type":"Feature","properties":{"country_code":"BGR","city":"Sofia","geoname_id":"727011","downloaders":"{\"size\":5176,\"mobile\":89,\"satellite\":0,\"tor\":0,\"tor_exit_nodes\":0,\"vpn\":398,\"relay\":0,\"proxy\":0,\"hosting\":1043,\"service\":317}","uploaders":"{\"size\":546,\"mobile\":9,\"satellite\":0,\"tor\":0,\"tor_exit_nodes\":0,\"vpn\":90,\"relay\":0,\"proxy\":0,\"hosting\":144,\"service\":83}"},"geometry":{"type":"Point","coordinates":[23.32415,42.69751]}},{"type":"Feature","properties":{"country_code":"RUS","city":"Novosibirsk","geoname_id":"1496747","downloaders":"{\"size\":5080,\"mobile\":347,\"satellite\":0,\"tor\":0,\"tor_exit_nodes\":0,\"vpn\":14,\"relay\":0,\"proxy\":0,\"hosting\":82,\"service\":2}","uploaders":"{\"size\":128,\"mobile\":62,\"satellite\":0,\"tor\":0,\"tor_exit_nodes\":0,\"vpn\":2,\"relay\":0,\"proxy\":0,\"hosting\":4,\"service\":0}"},"geometry":{"type":"Point","coordinates":[82.94339,55.03442]}},{"type":"Feature","properties":{"country_code":"USA","city":"Seattle","geoname_id":"5809844","downloaders":"{\"size\":4885,\"mobile\":117,\"satellite\":6,\"tor\":0,\"tor_exit_nodes\":0,\"vpn\":1502,\"relay\":0,\"proxy\":0,\"hosting\":3871,\"service\":1478}","uploaders":"{\"size\":913,\"mobile\":6,\"satellite\":4,\"tor\":0,\"tor_exit_nodes\":0,\"vpn\":341,\"relay\":0,\"proxy\":0,\"hosting\":741,\"service\":338}"},"geometry":{"type":"Point","coordinates":[-122.3129,47.5413]}},{"type":"Feature","properties":{"country_code":"SWE","city":"Stockholm","geoname_id":"2673730","downloaders":"{\"size\":4583,\"mobile\":125,\"satellite\":0,\"tor\":42,\"tor_exit_nodes\":43,\"vpn\":2182,\"relay\":0,\"proxy\":11,\"hosting\":1679,\"service\":2084}","uploaders":"{\"size\":918,\"mobile\":21,\"satellite\":0,\"tor\":4,\"tor_exit_nodes\":4,\"vpn\":490,\"relay\":0,\"proxy\":1,\"hosting\":381,\"service\":482}"},"geometry":{"type":"Point","coordinates":[18.06871,59.32938]}},{"type":"Feature","properties":{"country_code":"ZAF","city":"Cape Town","geoname_id":"3369157","downloaders":"{\"size\":4503,\"mobile\":1892,\"satellite\":0,\"tor\":0,\"tor_exit_nodes\":0,\"vpn\":6,\"relay\":0,\"proxy\":0,\"hosting\":555,\"service\":0}","uploaders":"{\"size\":1169,\"mobile\":307,\"satellite\":0,\"tor\":0,\"tor_exit_nodes\":0,\"vpn\":0,\"relay\":0,\"proxy\":0,\"hosting\":220,\"service\":0}"},"geometry":{"type":"Point","coordinates":[18.61668,-33.9778]}},{"type":"Feature","properties":{"country_code":"USA","city":"Miami","geoname_id":"4164138","downloaders":"{\"size\":4388,\"mobile\":30,\"satellite\":0,\"tor\":0,\"tor_exit_nodes\":0,\"vpn\":2926,\"relay\":5,\"proxy\":0,\"hosting\":3186,\"service\":2918}","uploaders":"{\"size\":779,\"mobile\":0,\"satellite\":0,\"tor\":0,\"tor_exit_nodes\":0,\"vpn\":538,\"relay\":2,\"proxy\":0,\"hosting\":601,\"service\":538}"},"geometry":{"type":"Point","coordinates":[-80.19366,25.77427]}},{"type":"Feature","properties":{"country_code":"UKR","city":"Kyiv","geoname_id":"703448","downloaders":"{\"size\":4240,\"mobile\":38,\"satellite\":0,\"tor\":0,\"tor_exit_nodes\":0,\"vpn\":247,\"relay\":0,\"proxy\":0,\"hosting\":975,\"service\":174}","uploaders":"{\"size\":190,\"mobile\":8,\"satellite\":0,\"tor\":0,\"tor_exit_nodes\":0,\"vpn\":33,\"relay\":0,\"proxy\":0,\"hosting\":76,\"service\":29}"},"geometry":{"type":"Point","coordinates":[30.5238,50.45466]}},{"type":"Feature","properties":{"country_code":"CHE","city":"Zürich","geoname_id":"2657896","downloaders":"{\"size\":4123,\"mobile\":154,\"satellite\":0,\"tor\":16,\"tor_exit_nodes\":0,\"vpn\":2296,\"relay\":0,\"proxy\":3,\"hosting\":2828,\"service\":2249}","uploaders":"{\"size\":814,\"mobile\":33,\"satellite\":0,\"tor\":7,\"tor_exit_nodes\":0,\"vpn\":508,\"relay\":0,\"proxy\":0,\"hosting\":559,\"service\":492}"},"geometry":{"type":"Point","coordinates":[8.55,47.36667]}},{"type":"Feature","properties":{"country_code":"CAN","city":"Vancouver","geoname_id":"6173331","downloaders":"{\"size\":4016,\"mobile\":255,\"satellite\":0,\"tor\":0,\"tor_exit_nodes\":0,\"vpn\":1086,\"relay\":0,\"proxy\":0,\"hosting\":3048,\"service\":1058}","uploaders":"{\"size\":1178,\"mobile\":36,\"satellite\":0,\"tor\":0,\"tor_exit_nodes\":0,\"vpn\":311,\"relay\":0,\"proxy\":0,\"hosting\":910,\"service\":304}"},"geometry":{"type":"Point","coordinates":[-123.11934,49.24966]}},{"type":"Feature","properties":{"country_code":"JPN","city":"Tokyo","geoname_id":"1850147","downloaders":"{\"size\":3994,\"mobile\":267,\"satellite\":0,\"tor\":0,\"tor_exit_nodes\":0,\"vpn\":1003,\"relay\":0,\"proxy\":1,\"hosting\":1739,\"service\":977}","uploaders":"{\"size\":584,\"mobile\":54,\"satellite\":0,\"tor\":0,\"tor_exit_nodes\":0,\"vpn\":200,\"relay\":0,\"proxy\":0,\"hosting\":316,\"service\":199}"},"geometry":{"type":"Point","coordinates":[139.69171,35.6895]}},{"type":"Feature","properties":{"country_code":"NLD","city":"Roosendaal","geoname_id":"2747930","downloaders":"{\"size\":3911,\"mobile\":0,\"satellite\":0,\"tor\":2,\"tor_exit_nodes\":8,\"vpn\":161,\"relay\":0,\"proxy\":0,\"hosting\":2470,\"service\":161}","uploaders":"{\"size\":624,\"mobile\":0,\"satellite\":0,\"tor\":0,\"tor_exit_nodes\":0,\"vpn\":45,\"relay\":0,\"proxy\":0,\"hosting\":527,\"service\":45}"},"geometry":{"type":"Point","coordinates":[4.46528,51.53083]}},{"type":"Feature","properties":{"country_code":"ESP","city":"Barcelona","geoname_id":"3128760","downloaders":"{\"size\":3867,\"mobile\":1296,\"satellite\":0,\"tor\":0,\"tor_exit_nodes\":0,\"vpn\":112,\"relay\":0,\"proxy\":0,\"hosting\":119,\"service\":102}","uploaders":"{\"size\":1116,\"mobile\":372,\"satellite\":0,\"tor\":0,\"tor_exit_nodes\":0,\"vpn\":21,\"relay\":0,\"proxy\":0,\"hosting\":23,\"service\":19}"},"geometry":{"type":"Point","coordinates":[2.15899,41.38879]}},{"type":"Feature","properties":{"country_code":"USA","city":"Atlanta","geoname_id":"4180439","downloaders":"{\"size\":3834,\"mobile\":66,\"satellite\":0,\"tor\":0,\"tor_exit_nodes\":0,\"vpn\":1921,\"relay\":0,\"proxy\":0,\"hosting\":2792,\"service\":1919}","uploaders":"{\"size\":690,\"mobile\":9,\"satellite\":0,\"tor\":0,\"tor_exit_nodes\":0,\"vpn\":437,\"relay\":0,\"proxy\":0,\"hosting\":572,\"service\":437}"},"geometry":{"type":"Point","coordinates":[-84.38798,33.749]}},{"type":"Feature","properties":{"country_code":"CHN","city":"Ningbo","geoname_id":"1799397","downloaders":"{\"size\":3771,\"mobile\":0,\"satellite\":0,\"tor\":0,\"tor_exit_nodes\":0,\"vpn\":56,\"relay\":0,\"proxy\":0,\"hosting\":8,\"service\":0}","uploaders":"{\"size\":706,\"mobile\":0,\"satellite\":0,\"tor\":0,\"tor_exit_nodes\":0,\"vpn\":12,\"relay\":0,\"proxy\":0,\"hosting\":0,\"service\":0}"},"geometry":{"type":"Point","coordinates":[121.54945,29.87819]}},{"type":"Feature","properties":{"country_code":"CHN","city":"Chengdu","geoname_id":"1815286","downloaders":"{\"size\":3675,\"mobile\":0,\"satellite\":0,\"tor\":0,\"tor_exit_nodes\":0,\"vpn\":22,\"relay\":0,\"proxy\":0,\"hosting\":40,\"service\":0}","uploaders":"{\"size\":687,\"mobile\":0,\"satellite\":0,\"tor\":0,\"tor_exit_nodes\":0,\"vpn\":7,\"relay\":0,\"proxy\":0,\"hosting\":4,\"service\":0}"},"geometry":{"type":"Point","coordinates":[104.06667,30.66667]}},{"type":"Feature","properties":{"country_code":"CHN","city":"Qingdao","geoname_id":"1797929","downloaders":"{\"size\":3537,\"mobile\":0,\"satellite\":0,\"tor\":0,\"tor_exit_nodes\":0,\"vpn\":40,\"relay\":0,\"proxy\":0,\"hosting\":14,\"service\":0}","uploaders":"{\"size\":542,\"mobile\":0,\"satellite\":0,\"tor\":0,\"tor_exit_nodes\":0,\"vpn\":4,\"relay\":0,\"proxy\":0,\"hosting\":0,\"service\":0}"},"geometry":{"type":"Point","coordinates":[120.38042,36.06488]}},{"type":"Feature","properties":{"country_code":"POL","city":"Warsaw","geoname_id":"756135","downloaders":"{\"size\":3525,\"mobile\":245,\"satellite\":0,\"tor\":0,\"tor_exit_nodes\":0,\"vpn\":374,\"relay\":0,\"proxy\":0,\"hosting\":624,\"service\":338}","uploaders":"{\"size\":615,\"mobile\":58,\"satellite\":0,\"tor\":0,\"tor_exit_nodes\":0,\"vpn\":76,\"relay\":0,\"proxy\":0,\"hosting\":111,\"service\":71}"},"geometry":{"type":"Point","coordinates":[21.01178,52.22977]}},{"type":"Feature","properties":{"country_code":"NLD","city":"Lelystad","geoname_id":"2751738","downloaders":"{\"size\":3510,\"mobile\":1,\"satellite\":0,\"tor\":1,\"tor_exit_nodes\":4,\"vpn\":573,\"relay\":0,\"proxy\":0,\"hosting\":3368,\"service\":571}","uploaders":"{\"size\":455,\"mobile\":1,\"satellite\":0,\"tor\":0,\"tor_exit_nodes\":0,\"vpn\":106,\"relay\":0,\"proxy\":0,\"hosting\":434,\"service\":106}"},"geometry":{"type":"Point","coordinates":[5.475,52.50833]}},{"type":"Feature","properties":{"country_code":"AUS","city":"Brisbane","geoname_id":"2174003","downloaders":"{\"size\":3462,\"mobile\":473,\"satellite\":0,\"tor\":0,\"tor_exit_nodes\":0,\"vpn\":885,\"relay\":0,\"proxy\":0,\"hosting\":955,\"service\":855}","uploaders":"{\"size\":1153,\"mobile\":128,\"satellite\":0,\"tor\":0,\"tor_exit_nodes\":0,\"vpn\":258,\"relay\":0,\"proxy\":0,\"hosting\":279,\"service\":249}"},"geometry":{"type":"Point","coordinates":[153.02809,-27.46794]}},{"type":"Feature","properties":{"country_code":"CHN","city":"Zhengzhou","geoname_id":"1784658","downloaders":"{\"size\":3402,\"mobile\":0,\"satellite\":0,\"tor\":0,\"tor_exit_nodes\":0,\"vpn\":38,\"relay\":0,\"proxy\":0,\"hosting\":0,\"service\":0}","uploaders":"{\"size\":484,\"mobile\":0,\"satellite\":0,\"tor\":0,\"tor_exit_nodes\":0,\"vpn\":8,\"relay\":0,\"proxy\":0,\"hosting\":0,\"service\":0}"},"geometry":{"type":"Point","coordinates":[113.64861,34.75778]}},{"type":"Feature","properties":{"country_code":"RUS","city":"Nizhniy Novgorod","geoname_id":"520555","downloaders":"{\"size\":3352,\"mobile\":458,\"satellite\":0,\"tor\":0,\"tor_exit_nodes\":0,\"vpn\":11,\"relay\":0,\"proxy\":0,\"hosting\":1,\"service\":3}","uploaders":"{\"size\":136,\"mobile\":44,\"satellite\":0,\"tor\":0,\"tor_exit_nodes\":0,\"vpn\":0,\"relay\":0,\"proxy\":0,\"hosting\":0,\"service\":0}"},"geometry":{"type":"Point","coordinates":[44.00205,56.32867]}},{"type":"Feature","properties":{"country_code":"NZL","city":"Auckland","geoname_id":"2193733","downloaders":"{\"size\":3246,\"mobile\":1302,\"satellite\":1,\"tor\":0,\"tor_exit_nodes\":0,\"vpn\":896,\"relay\":0,\"proxy\":0,\"hosting\":902,\"service\":886}","uploaders":"{\"size\":942,\"mobile\":424,\"satellite\":0,\"tor\":0,\"tor_exit_nodes\":0,\"vpn\":155,\"relay\":0,\"proxy\":0,\"hosting\":155,\"service\":154}"},"geometry":{"type":"Point","coordinates":[174.76349,-36.84853]}},{"type":"Feature","properties":{"country_code":"IRL","city":"Dublin","geoname_id":"2964574","downloaders":"{\"size\":3156,\"mobile\":318,\"satellite\":0,\"tor\":0,\"tor_exit_nodes\":0,\"vpn\":928,\"relay\":0,\"proxy\":0,\"hosting\":1485,\"service\":847}","uploaders":"{\"size\":779,\"mobile\":62,\"satellite\":0,\"tor\":0,\"tor_exit_nodes\":0,\"vpn\":194,\"relay\":0,\"proxy\":0,\"hosting\":324,\"service\":163}"},"geometry":{"type":"Point","coordinates":[-6.24889,53.33306]}},{"type":"Feature","properties":{"country_code":"BRA","city":"Rio de Janeiro","geoname_id":"3451190","downloaders":"{\"size\":3129,\"mobile\":262,\"satellite\":0,\"tor\":0,\"tor_exit_nodes\":0,\"vpn\":4,\"relay\":0,\"proxy\":0,\"hosting\":92,\"service\":0}","uploaders":"{\"size\":913,\"mobile\":46,\"satellite\":0,\"tor\":0,\"tor_exit_nodes\":0,\"vpn\":4,\"relay\":0,\"proxy\":0,\"hosting\":11,\"service\":0}"},"geometry":{"type":"Point","coordinates":[-43.18223,-22.90642]}},{"type":"Feature","properties":{"country_code":"RUS","city":"Chelyabinsk","geoname_id":"1508291","downloaders":"{\"size\":3121,\"mobile\":147,\"satellite\":0,\"tor\":0,\"tor_exit_nodes\":0,\"vpn\":7,\"relay\":0,\"proxy\":0,\"hosting\":8,\"service\":0}","uploaders":"{\"size\":82,\"mobile\":8,\"satellite\":0,\"tor\":0,\"tor_exit_nodes\":0,\"vpn\":0,\"relay\":0,\"proxy\":0,\"hosting\":2,\"service\":0}"},"geometry":{"type":"Point","coordinates":[61.42915,55.15402]}},{"type":"Feature","properties":{"country_code":"RUS","city":"Krasnoyarsk","geoname_id":"1502026","downloaders":"{\"size\":3059,\"mobile\":32,\"satellite\":0,\"tor\":0,\"tor_exit_nodes\":0,\"vpn\":6,\"relay\":0,\"proxy\":0,\"hosting\":10,\"service\":5}","uploaders":"{\"size\":108,\"mobile\":4,\"satellite\":0,\"tor\":0,\"tor_exit_nodes\":0,\"vpn\":0,\"relay\":0,\"proxy\":0,\"hosting\":0,\"service\":0}"},"geometry":{"type":"Point","coordinates":[92.90765,56.02668]}},{"type":"Feature","properties":{"country_code":"RUS","city":"Samara","geoname_id":"499099","downloaders":"{\"size\":3046,\"mobile\":167,\"satellite\":0,\"tor\":0,\"tor_exit_nodes\":0,\"vpn\":56,\"relay\":0,\"proxy\":0,\"hosting\":6,\"service\":38}","uploaders":"{\"size\":88,\"mobile\":7,\"satellite\":0,\"tor\":0,\"tor_exit_nodes\":0,\"vpn\":1,\"relay\":0,\"proxy\":0,\"hosting\":0,\"service\":1}"},"geometry":{"type":"Point","coordinates":[50.15,53.20007]}},{"type":"Feature","properties":{"country_code":"RUS","city":"Omsk","geoname_id":"1496153","downloaders":"{\"size\":2956,\"mobile\":2,\"satellite\":0,\"tor\":0,\"tor_exit_nodes\":0,\"vpn\":3,\"relay\":0,\"proxy\":0,\"hosting\":1,\"service\":2}","uploaders":"{\"size\":49,\"mobile\":0,\"satellite\":0,\"tor\":0,\"tor_exit_nodes\":0,\"vpn\":0,\"relay\":0,\"proxy\":0,\"hosting\":0,\"service\":0}"},"geometry":{"type":"Point","coordinates":[73.36859,54.99244]}},{"type":"Feature","properties":{"country_code":"CHN","city":"Wuhan","geoname_id":"1791247","downloaders":"{\"size\":2924,\"mobile\":0,\"satellite\":0,\"tor\":0,\"tor_exit_nodes\":0,\"vpn\":60,\"relay\":0,\"proxy\":0,\"hosting\":0,\"service\":0}","uploaders":"{\"size\":640,\"mobile\":0,\"satellite\":0,\"tor\":0,\"tor_exit_nodes\":0,\"vpn\":8,\"relay\":0,\"proxy\":0,\"hosting\":0,\"service\":0}"},"geometry":{"type":"Point","coordinates":[114.26667,30.58333]}},{"type":"Feature","properties":{"country_code":"ROU","city":"Bucharest","geoname_id":"683506","downloaders":"{\"size\":2921,\"mobile\":311,\"satellite\":0,\"tor\":3,\"tor_exit_nodes\":5,\"vpn\":811,\"relay\":0,\"proxy\":0,\"hosting\":1124,\"service\":774}","uploaders":"{\"size\":848,\"mobile\":65,\"satellite\":0,\"tor\":0,\"tor_exit_nodes\":0,\"vpn\":209,\"relay\":0,\"proxy\":0,\"hosting\":327,\"service\":204}"},"geometry":{"type":"Point","coordinates":[26.10626,44.43225]}},{"type":"Feature","properties":{"country_code":"FIN","city":"Helsinki","geoname_id":"658225","downloaders":"{\"size\":2862,\"mobile\":364,\"satellite\":0,\"tor\":0,\"tor_exit_nodes\":3,\"vpn\":381,\"relay\":0,\"proxy\":0,\"hosting\":2042,\"service\":373}","uploaders":"{\"size\":356,\"mobile\":102,\"satellite\":0,\"tor\":0,\"tor_exit_nodes\":0,\"vpn\":104,\"relay\":0,\"proxy\":0,\"hosting\":204,\"service\":99}"},"geometry":{"type":"Point","coordinates":[24.93545,60.16952]}},{"type":"Feature","properties":{"country_code":"RUS","city":"Krasnodar","geoname_id":"542420","downloaders":"{\"size\":2825,\"mobile\":626,\"satellite\":0,\"tor\":0,\"tor_exit_nodes\":0,\"vpn\":49,\"relay\":0,\"proxy\":0,\"hosting\":200,\"service\":15}","uploaders":"{\"size\":253,\"mobile\":126,\"satellite\":0,\"tor\":0,\"tor_exit_nodes\":0,\"vpn\":4,\"relay\":0,\"proxy\":0,\"hosting\":6,\"service\":4}"},"geometry":{"type":"Point","coordinates":[38.97603,45.04484]}},{"type":"Feature","properties":{"country_code":"DEU","city":"Falkenstein","geoname_id":"2927913","downloaders":"{\"size\":2823,\"mobile\":0,\"satellite\":0,\"tor\":0,\"tor_exit_nodes\":0,\"vpn\":4,\"relay\":0,\"proxy\":0,\"hosting\":2823,\"service\":4}","uploaders":"{\"size\":360,\"mobile\":0,\"satellite\":0,\"tor\":0,\"tor_exit_nodes\":0,\"vpn\":0,\"relay\":0,\"proxy\":0,\"hosting\":360,\"service\":0}"},"geometry":{"type":"Point","coordinates":[12.37129,50.47788]}},{"type":"Feature","properties":{"country_code":"RUS","city":"Tyumen","geoname_id":"1488754","downloaders":"{\"size\":2798,\"mobile\":338,\"satellite\":0,\"tor\":0,\"tor_exit_nodes\":0,\"vpn\":27,\"relay\":0,\"proxy\":0,\"hosting\":0,\"service\":1}","uploaders":"{\"size\":36,\"mobile\":7,\"satellite\":0,\"tor\":0,\"tor_exit_nodes\":0,\"vpn\":1,\"relay\":0,\"proxy\":0,\"hosting\":0,\"service\":0}"},"geometry":{"type":"Point","coordinates":[65.52722,57.15222]}},{"type":"Feature","properties":{"country_code":"AUS","city":"Perth","geoname_id":"2063523","downloaders":"{\"size\":2720,\"mobile\":277,\"satellite\":0,\"tor\":0,\"tor_exit_nodes\":0,\"vpn\":968,\"relay\":0,\"proxy\":0,\"hosting\":998,\"service\":949}","uploaders":"{\"size\":856,\"mobile\":65,\"satellite\":0,\"tor\":0,\"tor_exit_nodes\":0,\"vpn\":235,\"relay\":0,\"proxy\":0,\"hosting\":247,\"service\":229}"},"geometry":{"type":"Point","coordinates":[115.8614,-31.95224]}},{"type":"Feature","properties":{"country_code":"GBR","city":"Manchester","geoname_id":"2643123","downloaders":"{\"size\":2658,\"mobile\":223,\"satellite\":0,\"tor\":0,\"tor_exit_nodes\":0,\"vpn\":866,\"relay\":0,\"proxy\":0,\"hosting\":745,\"service\":755}","uploaders":"{\"size\":469,\"mobile\":56,\"satellite\":0,\"tor\":0,\"tor_exit_nodes\":0,\"vpn\":173,\"relay\":0,\"proxy\":0,\"hosting\":161,\"service\":159}"},"geometry":{"type":"Point","coordinates":[-2.23743,53.48095]}},{"type":"Feature","properties":{"country_code":"RUS","city":"Perm","geoname_id":"511196","downloaders":"{\"size\":2636,\"mobile\":82,\"satellite\":0,\"tor\":0,\"tor_exit_nodes\":0,\"vpn\":17,\"relay\":0,\"proxy\":0,\"hosting\":0,\"service\":0}","uploaders":"{\"size\":111,\"mobile\":4,\"satellite\":0,\"tor\":0,\"tor_exit_nodes\":0,\"vpn\":0,\"relay\":0,\"proxy\":0,\"hosting\":0,\"service\":0}"},"geometry":{"type":"Point","coordinates":[56.25017,58.01046]}},{"type":"Feature","properties":{"country_code":"FRA","city":"Dunkerque","geoname_id":"3020686","downloaders":"{\"size\":2625,\"mobile\":14,\"satellite\":0,\"tor\":0,\"tor_exit_nodes\":0,\"vpn\":60,\"relay\":0,\"proxy\":0,\"hosting\":2602,\"service\":48}","uploaders":"{\"size\":144,\"mobile\":0,\"satellite\":0,\"tor\":0,\"tor_exit_nodes\":0,\"vpn\":6,\"relay\":0,\"proxy\":0,\"hosting\":144,\"service\":5}"},"geometry":{"type":"Point","coordinates":[2.37681,51.0344]}},{"type":"Feature","properties":{"country_code":"RUS","city":"Rostov-na-Donu","geoname_id":"501175","downloaders":"{\"size\":2625,\"mobile\":226,\"satellite\":0,\"tor\":0,\"tor_exit_nodes\":0,\"vpn\":71,\"relay\":0,\"proxy\":0,\"hosting\":4,\"service\":2}","uploaders":"{\"size\":175,\"mobile\":60,\"satellite\":0,\"tor\":0,\"tor_exit_nodes\":0,\"vpn\":6,\"relay\":0,\"proxy\":0,\"hosting\":0,\"service\":1}"},"geometry":{"type":"Point","coordinates":[39.72328,47.23135]}},{"type":"Feature","properties":{"country_code":"TWN","city":"Taipei","geoname_id":"1668341","downloaders":"{\"size\":2622,\"mobile\":250,\"satellite\":0,\"tor\":0,\"tor_exit_nodes\":0,\"vpn\":89,\"relay\":0,\"proxy\":0,\"hosting\":101,\"service\":41}","uploaders":"{\"size\":405,\"mobile\":44,\"satellite\":0,\"tor\":0,\"tor_exit_nodes\":0,\"vpn\":5,\"relay\":0,\"proxy\":0,\"hosting\":10,\"service\":3}"},"geometry":{"type":"Point","coordinates":[121.52639,25.05306]}},{"type":"Feature","properties":{"country_code":"CHN","city":"Shenyang","geoname_id":"2034937","downloaders":"{\"size\":2594,\"mobile\":0,\"satellite\":0,\"tor\":0,\"tor_exit_nodes\":0,\"vpn\":21,\"relay\":0,\"proxy\":0,\"hosting\":0,\"service\":0}","uploaders":"{\"size\":378,\"mobile\":0,\"satellite\":0,\"tor\":0,\"tor_exit_nodes\":0,\"vpn\":8,\"relay\":0,\"proxy\":0,\"hosting\":0,\"service\":0}"},"geometry":{"type":"Point","coordinates":[123.43278,41.79222]}},{"type":"Feature","properties":{"country_code":"KOR","city":"Incheon","geoname_id":"1843564","downloaders":"{\"size\":2536,\"mobile\":2,\"satellite\":0,\"tor\":0,\"tor_exit_nodes\":0,\"vpn\":14,\"relay\":0,\"proxy\":0,\"hosting\":423,\"service\":2}","uploaders":"{\"size\":57,\"mobile\":0,\"satellite\":0,\"tor\":0,\"tor_exit_nodes\":0,\"vpn\":0,\"relay\":0,\"proxy\":0,\"hosting\":10,\"service\":0}"},"geometry":{"type":"Point","coordinates":[126.70515,37.45646]}},{"type":"Feature","properties":{"country_code":"RUS","city":"Voronezh","geoname_id":"472045","downloaders":"{\"size\":2513,\"mobile\":37,\"satellite\":0,\"tor\":0,\"tor_exit_nodes\":0,\"vpn\":34,\"relay\":0,\"proxy\":0,\"hosting\":9,\"service\":0}","uploaders":"{\"size\":88,\"mobile\":1,\"satellite\":0,\"tor\":0,\"tor_exit_nodes\":0,\"vpn\":2,\"relay\":0,\"proxy\":0,\"hosting\":0,\"service\":0}"},"geometry":{"type":"Point","coordinates":[39.1843,51.67204]}},{"type":"Feature","properties":{"country_code":"RUS","city":"Tolyatti","geoname_id":"482283","downloaders":"{\"size\":2503,\"mobile\":0,\"satellite\":0,\"tor\":0,\"tor_exit_nodes\":0,\"vpn\":0,\"relay\":0,\"proxy\":0,\"hosting\":0,\"service\":0}","uploaders":"{\"size\":68,\"mobile\":0,\"satellite\":0,\"tor\":0,\"tor_exit_nodes\":0,\"vpn\":0,\"relay\":0,\"proxy\":0,\"hosting\":0,\"service\":0}"},"geometry":{"type":"Point","coordinates":[49.3461,53.5303]}},{"type":"Feature","properties":{"country_code":"USA","city":"Denver","geoname_id":"5419384","downloaders":"{\"size\":2470,\"mobile\":106,\"satellite\":0,\"tor\":0,\"tor_exit_nodes\":0,\"vpn\":1220,\"relay\":2,\"proxy\":0,\"hosting\":1789,\"service\":1217}","uploaders":"{\"size\":487,\"mobile\":29,\"satellite\":0,\"tor\":0,\"tor_exit_nodes\":0,\"vpn\":246,\"relay\":0,\"proxy\":0,\"hosting\":361,\"service\":246}"},"geometry":{"type":"Point","coordinates":[-104.9847,39.73915]}},{"type":"Feature","properties":{"country_code":"CZE","city":"Prague","geoname_id":"3067696","downloaders":"{\"size\":2449,\"mobile\":59,\"satellite\":0,\"tor\":0,\"tor_exit_nodes\":0,\"vpn\":1222,\"relay\":0,\"proxy\":0,\"hosting\":1457,\"service\":1199}","uploaders":"{\"size\":561,\"mobile\":8,\"satellite\":0,\"tor\":0,\"tor_exit_nodes\":0,\"vpn\":357,\"relay\":0,\"proxy\":0,\"hosting\":367,\"service\":353}"},"geometry":{"type":"Point","coordinates":[14.42076,50.08804]}},{"type":"Feature","properties":{"country_code":"GHA","city":"Accra","geoname_id":"2306104","downloaders":"{\"size\":2435,\"mobile\":2153,\"satellite\":0,\"tor\":0,\"tor_exit_nodes\":0,\"vpn\":5,\"relay\":0,\"proxy\":0,\"hosting\":20,\"service\":0}","uploaders":"{\"size\":442,\"mobile\":380,\"satellite\":0,\"tor\":0,\"tor_exit_nodes\":0,\"vpn\":2,\"relay\":0,\"proxy\":0,\"hosting\":5,\"service\":0}"},"geometry":{"type":"Point","coordinates":[-0.1969,5.55602]}},{"type":"Feature","properties":{"country_code":"CHN","city":"Hangzhou","geoname_id":"1808926","downloaders":"{\"size\":2432,\"mobile\":0,\"satellite\":0,\"tor\":0,\"tor_exit_nodes\":0,\"vpn\":29,\"relay\":0,\"proxy\":0,\"hosting\":361,\"service\":0}","uploaders":"{\"size\":495,\"mobile\":0,\"satellite\":0,\"tor\":0,\"tor_exit_nodes\":0,\"vpn\":3,\"relay\":0,\"proxy\":0,\"hosting\":124,\"service\":0}"},"geometry":{"type":"Point","coordinates":[120.16142,30.29365]}},{"type":"Feature","properties":{"country_code":"USA","city":"Phoenix","geoname_id":"5308655","downloaders":"{\"size\":2339,\"mobile\":29,\"satellite\":0,\"tor\":0,\"tor_exit_nodes\":0,\"vpn\":472,\"relay\":0,\"proxy\":0,\"hosting\":1624,\"service\":421}","uploaders":"{\"size\":465,\"mobile\":3,\"satellite\":0,\"tor\":0,\"tor_exit_nodes\":0,\"vpn\":79,\"relay\":0,\"proxy\":0,\"hosting\":367,\"service\":68}"},"geometry":{"type":"Point","coordinates":[-112.07404,33.44838]}},{"type":"Feature","properties":{"country_code":"USA","city":"San Francisco","geoname_id":"5391959","downloaders":"{\"size\":2339,\"mobile\":31,\"satellite\":0,\"tor\":0,\"tor_exit_nodes\":0,\"vpn\":808,\"relay\":0,\"proxy\":0,\"hosting\":994,\"service\":634}","uploaders":"{\"size\":479,\"mobile\":1,\"satellite\":0,\"tor\":0,\"tor_exit_nodes\":0,\"vpn\":167,\"relay\":0,\"proxy\":0,\"hosting\":200,\"service\":152}"},"geometry":{"type":"Point","coordinates":[-122.41942,37.77493]}},{"type":"Feature","properties":{"country_code":"RUS","city":"Ufa","geoname_id":"479561","downloaders":"{\"size\":2319,\"mobile\":78,\"satellite\":0,\"tor\":0,\"tor_exit_nodes\":0,\"vpn\":20,\"relay\":0,\"proxy\":0,\"hosting\":0,\"service\":7}","uploaders":"{\"size\":119,\"mobile\":26,\"satellite\":0,\"tor\":0,\"tor_exit_nodes\":0,\"vpn\":2,\"relay\":0,\"proxy\":0,\"hosting\":0,\"service\":2}"},"geometry":{"type":"Point","coordinates":[55.96779,54.74306]}},{"type":"Feature","properties":{"country_code":"LVA","city":"Riga","geoname_id":"456172","downloaders":"{\"size\":2316,\"mobile\":63,\"satellite\":0,\"tor\":0,\"tor_exit_nodes\":0,\"vpn\":267,\"relay\":0,\"proxy\":0,\"hosting\":470,\"service\":240}","uploaders":"{\"size\":345,\"mobile\":19,\"satellite\":0,\"tor\":0,\"tor_exit_nodes\":0,\"vpn\":88,\"relay\":0,\"proxy\":0,\"hosting\":153,\"service\":84}"},"geometry":{"type":"Point","coordinates":[24.10589,56.946]}},{"type":"Feature","properties":{"country_code":"RUS","city":"Saratov","geoname_id":"498677","downloaders":"{\"size\":2313,\"mobile\":27,\"satellite\":0,\"tor\":0,\"tor_exit_nodes\":0,\"vpn\":4,\"relay\":0,\"proxy\":0,\"hosting\":1,\"service\":0}","uploaders":"{\"size\":41,\"mobile\":0,\"satellite\":0,\"tor\":0,\"tor_exit_nodes\":0,\"vpn\":0,\"relay\":0,\"proxy\":0,\"hosting\":0,\"service\":0}"},"geometry":{"type":"Point","coordinates":[46.00861,51.54056]}},{"type":"Feature","properties":{"country_code":"CHL","city":"Santiago","geoname_id":"3871336","downloaders":"{\"size\":2305,\"mobile\":575,\"satellite\":0,\"tor\":0,\"tor_exit_nodes\":0,\"vpn\":43,\"relay\":0,\"proxy\":0,\"hosting\":230,\"service\":28}","uploaders":"{\"size\":559,\"mobile\":113,\"satellite\":0,\"tor\":0,\"tor_exit_nodes\":0,\"vpn\":6,\"relay\":0,\"proxy\":0,\"hosting\":34,\"service\":0}"},"geometry":{"type":"Point","coordinates":[-70.64827,-33.45694]}},{"type":"Feature","properties":{"country_code":"HRV","city":"Zagreb","geoname_id":"3186886","downloaders":"{\"size\":2296,\"mobile\":675,\"satellite\":0,\"tor\":0,\"tor_exit_nodes\":0,\"vpn\":139,\"relay\":0,\"proxy\":0,\"hosting\":117,\"service\":132}","uploaders":"{\"size\":674,\"mobile\":201,\"satellite\":0,\"tor\":0,\"tor_exit_nodes\":0,\"vpn\":29,\"relay\":0,\"proxy\":0,\"hosting\":25,\"service\":27}"},"geometry":{"type":"Point","coordinates":[15.97798,45.81444]}},{"type":"Feature","properties":{"country_code":"RUS","city":"Tomsk","geoname_id":"1489425","downloaders":"{\"size\":2258,\"mobile\":0,\"satellite\":0,\"tor\":0,\"tor_exit_nodes\":0,\"vpn\":4,\"relay\":0,\"proxy\":0,\"hosting\":1,\"service\":0}","uploaders":"{\"size\":29,\"mobile\":0,\"satellite\":0,\"tor\":0,\"tor_exit_nodes\":0,\"vpn\":0,\"relay\":0,\"proxy\":0,\"hosting\":0,\"service\":0}"},"geometry":{"type":"Point","coordinates":[84.98204,56.50032]}},{"type":"Feature","properties":{"country_code":"AUT","city":"Vienna","geoname_id":"2761369","downloaders":"{\"size\":2228,\"mobile\":378,\"satellite\":0,\"tor\":0,\"tor_exit_nodes\":0,\"vpn\":518,\"relay\":0,\"proxy\":0,\"hosting\":955,\"service\":501}","uploaders":"{\"size\":463,\"mobile\":147,\"satellite\":0,\"tor\":0,\"tor_exit_nodes\":0,\"vpn\":90,\"relay\":0,\"proxy\":0,\"hosting\":154,\"service\":89}"},"geometry":{"type":"Point","coordinates":[16.37208,48.20849]}},{"type":"Feature","properties":{"country_code":"USA","city":"San Jose","geoname_id":"5392171","downloaders":"{\"size\":2210,\"mobile\":4,\"satellite\":2,\"tor\":74,\"tor_exit_nodes\":74,\"vpn\":303,\"relay\":0,\"proxy\":2,\"hosting\":1829,\"service\":303}","uploaders":"{\"size\":479,\"mobile\":2,\"satellite\":0,\"tor\":1,\"tor_exit_nodes\":1,\"vpn\":57,\"relay\":0,\"proxy\":0,\"hosting\":388,\"service\":57}"},"geometry":{"type":"Point","coordinates":[-121.89496,37.33939]}},{"type":"Feature","properties":{"country_code":"CHN","city":"Nanning","geoname_id":"1799869","downloaders":"{\"size\":2160,\"mobile\":0,\"satellite\":0,\"tor\":0,\"tor_exit_nodes\":0,\"vpn\":33,\"relay\":0,\"proxy\":0,\"hosting\":0,\"service\":0}","uploaders":"{\"size\":415,\"mobile\":0,\"satellite\":0,\"tor\":0,\"tor_exit_nodes\":0,\"vpn\":3,\"relay\":0,\"proxy\":0,\"hosting\":0,\"service\":0}"},"geometry":{"type":"Point","coordinates":[108.31667,22.81667]}},{"type":"Feature","properties":{"country_code":"MYS","city":"Kuala Lumpur","geoname_id":"1735161","downloaders":"{\"size\":2136,\"mobile\":273,\"satellite\":0,\"tor\":0,\"tor_exit_nodes\":0,\"vpn\":22,\"relay\":0,\"proxy\":0,\"hosting\":92,\"service\":8}","uploaders":"{\"size\":527,\"mobile\":40,\"satellite\":0,\"tor\":0,\"tor_exit_nodes\":0,\"vpn\":1,\"relay\":0,\"proxy\":0,\"hosting\":15,\"service\":1}"},"geometry":{"type":"Point","coordinates":[101.68653,3.1412]}},{"type":"Feature","properties":{"country_code":"ARG","city":"Buenos Aires","geoname_id":"3435910","downloaders":"{\"size\":2113,\"mobile\":278,\"satellite\":6,\"tor\":0,\"tor_exit_nodes\":0,\"vpn\":21,\"relay\":0,\"proxy\":0,\"hosting\":189,\"service\":4}","uploaders":"{\"size\":607,\"mobile\":66,\"satellite\":3,\"tor\":0,\"tor_exit_nodes\":0,\"vpn\":4,\"relay\":0,\"proxy\":0,\"hosting\":24,\"service\":2}"},"geometry":{"type":"Point","coordinates":[-58.37723,-34.61315]}},{"type":"Feature","properties":{"country_code":"CHN","city":"Shijiazhuang","geoname_id":"1795270","downloaders":"{\"size\":2096,\"mobile\":0,\"satellite\":0,\"tor\":0,\"tor_exit_nodes\":0,\"vpn\":8,\"relay\":0,\"proxy\":0,\"hosting\":0,\"service\":0}","uploaders":"{\"size\":381,\"mobile\":0,\"satellite\":0,\"tor\":0,\"tor_exit_nodes\":0,\"vpn\":6,\"relay\":0,\"proxy\":0,\"hosting\":0,\"service\":0}"},"geometry":{"type":"Point","coordinates":[114.47861,38.04139]}},{"type":"Feature","properties":{"country_code":"THA","city":"Bangkok","geoname_id":"1609350","downloaders":"{\"size\":2085,\"mobile\":352,\"satellite\":0,\"tor\":0,\"tor_exit_nodes\":0,\"vpn\":34,\"relay\":0,\"proxy\":0,\"hosting\":169,\"service\":22}","uploaders":"{\"size\":620,\"mobile\":99,\"satellite\":0,\"tor\":0,\"tor_exit_nodes\":0,\"vpn\":8,\"relay\":0,\"proxy\":0,\"hosting\":12,\"service\":7}"},"geometry":{"type":"Point","coordinates":[100.50144,13.75398]}},{"type":"Feature","properties":{"country_code":"TUR","city":"Istanbul","geoname_id":"745044","downloaders":"{\"size\":2084,\"mobile\":322,\"satellite\":0,\"tor\":0,\"tor_exit_nodes\":0,\"vpn\":5,\"relay\":0,\"proxy\":0,\"hosting\":103,\"service\":3}","uploaders":"{\"size\":384,\"mobile\":72,\"satellite\":0,\"tor\":0,\"tor_exit_nodes\":0,\"vpn\":0,\"relay\":0,\"proxy\":0,\"hosting\":6,\"service\":0}"},"geometry":{"type":"Point","coordinates":[28.94966,41.01384]}},{"type":"Feature","properties":{"country_code":"BEL","city":"Brussels","geoname_id":"2800866","downloaders":"{\"size\":2082,\"mobile\":80,\"satellite\":0,\"tor\":0,\"tor_exit_nodes\":0,\"vpn\":167,\"relay\":0,\"proxy\":0,\"hosting\":317,\"service\":162}","uploaders":"{\"size\":371,\"mobile\":19,\"satellite\":0,\"tor\":0,\"tor_exit_nodes\":0,\"vpn\":26,\"relay\":0,\"proxy\":0,\"hosting\":63,\"service\":26}"},"geometry":{"type":"Point","coordinates":[4.34878,50.85045]}},{"type":"Feature","properties":{"country_code":"RUS","city":"Barnaul","geoname_id":"1510853","downloaders":"{\"size\":2075,\"mobile\":0,\"satellite\":0,\"tor\":0,\"tor_exit_nodes\":0,\"vpn\":9,\"relay\":0,\"proxy\":0,\"hosting\":0,\"service\":0}","uploaders":"{\"size\":22,\"mobile\":0,\"satellite\":0,\"tor\":0,\"tor_exit_nodes\":0,\"vpn\":0,\"relay\":0,\"proxy\":0,\"hosting\":0,\"service\":0}"},"geometry":{"type":"Point","coordinates":[83.7456,53.3598]}},{"type":"Feature","properties":{"country_code":"RUS","city":"Kemerovo","geoname_id":"1503901","downloaders":"{\"size\":2041,\"mobile\":2,\"satellite\":0,\"tor\":0,\"tor_exit_nodes\":0,\"vpn\":8,\"relay\":0,\"proxy\":0,\"hosting\":1,\"service\":0}","uploaders":"{\"size\":16,\"mobile\":0,\"satellite\":0,\"tor\":0,\"tor_exit_nodes\":0,\"vpn\":0,\"relay\":0,\"proxy\":0,\"hosting\":0,\"service\":0}"},"geometry":{"type":"Point","coordinates":[86.08333,55.33333]}},{"type":"Feature","properties":{"country_code":"NOR","city":"Oslo","geoname_id":"3143244","downloaders":"{\"size\":1975,\"mobile\":67,\"satellite\":0,\"tor\":0,\"tor_exit_nodes\":0,\"vpn\":919,\"relay\":3,\"proxy\":0,\"hosting\":693,\"service\":917}","uploaders":"{\"size\":388,\"mobile\":14,\"satellite\":0,\"tor\":0,\"tor_exit_nodes\":0,\"vpn\":209,\"relay\":0,\"proxy\":0,\"hosting\":159,\"service\":206}"},"geometry":{"type":"Point","coordinates":[10.74609,59.91273]}},{"type":"Feature","properties":{"country_code":"USA","city":"Houston","geoname_id":"4699066","downloaders":"{\"size\":1964,\"mobile\":117,\"satellite\":0,\"tor\":0,\"tor_exit_nodes\":0,\"vpn\":871,\"relay\":0,\"proxy\":0,\"hosting\":885,\"service\":613}","uploaders":"{\"size\":269,\"mobile\":10,\"satellite\":0,\"tor\":0,\"tor_exit_nodes\":0,\"vpn\":147,\"relay\":0,\"proxy\":0,\"hosting\":147,\"service\":95}"},"geometry":{"type":"Point","coordinates":[-95.36327,29.76328]}},{"type":"Feature","properties":{"country_code":"USA","city":"Washington","geoname_id":"4140963","downloaders":"{\"size\":1945,\"mobile\":56,\"satellite\":0,\"tor\":0,\"tor_exit_nodes\":0,\"vpn\":749,\"relay\":0,\"proxy\":0,\"hosting\":1087,\"service\":746}","uploaders":"{\"size\":402,\"mobile\":3,\"satellite\":0,\"tor\":0,\"tor_exit_nodes\":0,\"vpn\":163,\"relay\":0,\"proxy\":0,\"hosting\":316,\"service\":162}"},"geometry":{"type":"Point","coordinates":[-77.03637,38.89511]}},{"type":"Feature","properties":{"country_code":"ITA","city":"Milan","geoname_id":"3173435","downloaders":"{\"size\":1919,\"mobile\":354,\"satellite\":0,\"tor\":0,\"tor_exit_nodes\":0,\"vpn\":290,\"relay\":0,\"proxy\":0,\"hosting\":556,\"service\":287}","uploaders":"{\"size\":311,\"mobile\":77,\"satellite\":0,\"tor\":0,\"tor_exit_nodes\":0,\"vpn\":33,\"relay\":0,\"proxy\":0,\"hosting\":76,\"service\":33}"},"geometry":{"type":"Point","coordinates":[9.18951,45.46427]}},{"type":"Feature","properties":{"country_code":"RUS","city":"Volgograd","geoname_id":"472757","downloaders":"{\"size\":1901,\"mobile\":65,\"satellite\":0,\"tor\":0,\"tor_exit_nodes\":0,\"vpn\":14,\"relay\":0,\"proxy\":0,\"hosting\":0,\"service\":0}","uploaders":"{\"size\":154,\"mobile\":13,\"satellite\":0,\"tor\":0,\"tor_exit_nodes\":0,\"vpn\":0,\"relay\":0,\"proxy\":0,\"hosting\":0,\"service\":0}"},"geometry":{"type":"Point","coordinates":[44.50183,48.71939]}},{"type":"Feature","properties":{"country_code":"ISR","city":"Tel Aviv","geoname_id":"293397","downloaders":"{\"size\":1871,\"mobile\":466,\"satellite\":0,\"tor\":0,\"tor_exit_nodes\":0,\"vpn\":22,\"relay\":0,\"proxy\":0,\"hosting\":106,\"service\":19}","uploaders":"{\"size\":453,\"mobile\":89,\"satellite\":0,\"tor\":0,\"tor_exit_nodes\":0,\"vpn\":8,\"relay\":0,\"proxy\":0,\"hosting\":12,\"service\":8}"},"geometry":{"type":"Point","coordinates":[34.78057,32.08088]}},{"type":"Feature","properties":{"country_code":"ITA","city":"Rome","geoname_id":"3169070","downloaders":"{\"size\":1866,\"mobile\":985,\"satellite\":1,\"tor\":0,\"tor_exit_nodes\":0,\"vpn\":7,\"relay\":0,\"proxy\":0,\"hosting\":36,\"service\":6}","uploaders":"{\"size\":141,\"mobile\":39,\"satellite\":0,\"tor\":0,\"tor_exit_nodes\":0,\"vpn\":0,\"relay\":0,\"proxy\":0,\"hosting\":1,\"service\":0}"},"geometry":{"type":"Point","coordinates":[12.51133,41.89193]}},{"type":"Feature","properties":{"country_code":"TWN","city":"Banqiao","geoname_id":"1670029","downloaders":"{\"size\":1860,\"mobile\":31,\"satellite\":0,\"tor\":0,\"tor_exit_nodes\":0,\"vpn\":32,\"relay\":0,\"proxy\":0,\"hosting\":57,\"service\":0}","uploaders":"{\"size\":282,\"mobile\":5,\"satellite\":0,\"tor\":0,\"tor_exit_nodes\":0,\"vpn\":11,\"relay\":0,\"proxy\":0,\"hosting\":0,\"service\":0}"},"geometry":{"type":"Point","coordinates":[121.46719,25.01427]}},{"type":"Feature","properties":{"country_code":"PHL","city":"Quezon City","geoname_id":"1692192","downloaders":"{\"size\":1830,\"mobile\":521,\"satellite\":0,\"tor\":0,\"tor_exit_nodes\":0,\"vpn\":3,\"relay\":0,\"proxy\":0,\"hosting\":0,\"service\":0}","uploaders":"{\"size\":355,\"mobile\":85,\"satellite\":0,\"tor\":0,\"tor_exit_nodes\":0,\"vpn\":0,\"relay\":0,\"proxy\":0,\"hosting\":0,\"service\":0}"},"geometry":{"type":"Point","coordinates":[121.0509,14.6488]}},{"type":"Feature","properties":{"country_code":"GRC","city":"Athens","geoname_id":"264371","downloaders":"{\"size\":1802,\"mobile\":88,\"satellite\":0,\"tor\":0,\"tor_exit_nodes\":0,\"vpn\":66,\"relay\":0,\"proxy\":0,\"hosting\":227,\"service\":50}","uploaders":"{\"size\":531,\"mobile\":13,\"satellite\":0,\"tor\":0,\"tor_exit_nodes\":0,\"vpn\":28,\"relay\":0,\"proxy\":0,\"hosting\":35,\"service\":21}"},"geometry":{"type":"Point","coordinates":[23.72784,37.98376]}},{"type":"Feature","properties":{"country_code":"CHN","city":"Changsha","geoname_id":"1815577","downloaders":"{\"size\":1792,\"mobile\":0,\"satellite\":0,\"tor\":0,\"tor_exit_nodes\":0,\"vpn\":14,\"relay\":0,\"proxy\":0,\"hosting\":0,\"service\":0}","uploaders":"{\"size\":332,\"mobile\":0,\"satellite\":0,\"tor\":0,\"tor_exit_nodes\":0,\"vpn\":2,\"relay\":0,\"proxy\":0,\"hosting\":0,\"service\":0}"},"geometry":{"type":"Point","coordinates":[112.97087,28.19874]}},{"type":"Feature","properties":{"country_code":"CHN","city":"Kunming","geoname_id":"1804651","downloaders":"{\"size\":1781,\"mobile\":0,\"satellite\":0,\"tor\":0,\"tor_exit_nodes\":0,\"vpn\":20,\"relay\":0,\"proxy\":0,\"hosting\":0,\"service\":0}","uploaders":"{\"size\":380,\"mobile\":0,\"satellite\":0,\"tor\":0,\"tor_exit_nodes\":0,\"vpn\":4,\"relay\":0,\"proxy\":0,\"hosting\":0,\"service\":0}"},"geometry":{"type":"Point","coordinates":[102.71833,25.03889]}},{"type":"Feature","properties":{"country_code":"LTU","city":"Vilnius","geoname_id":"593116","downloaders":"{\"size\":1771,\"mobile\":60,\"satellite\":0,\"tor\":0,\"tor_exit_nodes\":0,\"vpn\":127,\"relay\":0,\"proxy\":0,\"hosting\":361,\"service\":115}","uploaders":"{\"size\":208,\"mobile\":17,\"satellite\":0,\"tor\":0,\"tor_exit_nodes\":0,\"vpn\":36,\"relay\":0,\"proxy\":0,\"hosting\":74,\"service\":34}"},"geometry":{"type":"Point","coordinates":[25.2798,54.68916]}},{"type":"Feature","properties":{"country_code":"FRA","city":"Calais","geoname_id":"3029162","downloaders":"{\"size\":1683,\"mobile\":13,\"satellite\":0,\"tor\":0,\"tor_exit_nodes\":1,\"vpn\":40,\"relay\":0,\"proxy\":0,\"hosting\":1657,\"service\":1}","uploaders":"{\"size\":50,\"mobile\":2,\"satellite\":0,\"tor\":0,\"tor_exit_nodes\":0,\"vpn\":0,\"relay\":0,\"proxy\":0,\"hosting\":48,\"service\":0}"},"geometry":{"type":"Point","coordinates":[1.85635,50.95194]}},{"type":"Feature","properties":{"country_code":"ZAF","city":"Centurion","geoname_id":"1105777","downloaders":"{\"size\":1655,\"mobile\":1647,\"satellite\":0,\"tor\":0,\"tor_exit_nodes\":0,\"vpn\":0,\"relay\":0,\"proxy\":0,\"hosting\":1,\"service\":0}","uploaders":"{\"size\":275,\"mobile\":274,\"satellite\":0,\"tor\":0,\"tor_exit_nodes\":0,\"vpn\":0,\"relay\":0,\"proxy\":0,\"hosting\":0,\"service\":0}"},"geometry":{"type":"Point","coordinates":[28.20559,-25.80489]}},{"type":"Feature","properties":{"country_code":"MOZ","city":"Maputo","geoname_id":"1040652","downloaders":"{\"size\":1633,\"mobile\":348,\"satellite\":0,\"tor\":0,\"tor_exit_nodes\":0,\"vpn\":14,\"relay\":0,\"proxy\":0,\"hosting\":210,\"service\":0}","uploaders":"{\"size\":643,\"mobile\":60,\"satellite\":0,\"tor\":0,\"tor_exit_nodes\":0,\"vpn\":3,\"relay\":0,\"proxy\":0,\"hosting\":103,\"service\":0}"},"geometry":{"type":"Point","coordinates":[32.58322,-25.96553]}},{"type":"Feature","properties":{"country_code":"RUS","city":"Irkutsk","geoname_id":"2023469","downloaders":"{\"size\":1608,\"mobile\":27,\"satellite\":0,\"tor\":0,\"tor_exit_nodes\":0,\"vpn\":2,\"relay\":0,\"proxy\":0,\"hosting\":0,\"service\":0}","uploaders":"{\"size\":34,\"mobile\":1,\"satellite\":0,\"tor\":0,\"tor_exit_nodes\":0,\"vpn\":0,\"relay\":0,\"proxy\":0,\"hosting\":0,\"service\":0}"},"geometry":{"type":"Point","coordinates":[104.29585,52.29795]}},{"type":"Feature","properties":{"country_code":"PRT","city":"Lisbon","geoname_id":"2267057","downloaders":"{\"size\":1593,\"mobile\":150,\"satellite\":0,\"tor\":0,\"tor_exit_nodes\":0,\"vpn\":200,\"relay\":0,\"proxy\":0,\"hosting\":256,\"service\":196}","uploaders":"{\"size\":422,\"mobile\":19,\"satellite\":0,\"tor\":0,\"tor_exit_nodes\":0,\"vpn\":57,\"relay\":0,\"proxy\":0,\"hosting\":68,\"service\":57}"},"geometry":{"type":"Point","coordinates":[-9.1498,38.72509]}},{"type":"Feature","properties":{"country_code":"BRA","city":"Brasília","geoname_id":"3469058","downloaders":"{\"size\":1588,\"mobile\":76,\"satellite\":0,\"tor\":0,\"tor_exit_nodes\":0,\"vpn\":6,\"relay\":0,\"proxy\":0,\"hosting\":14,\"service\":0}","uploaders":"{\"size\":514,\"mobile\":17,\"satellite\":0,\"tor\":0,\"tor_exit_nodes\":0,\"vpn\":4,\"relay\":0,\"proxy\":0,\"hosting\":5,\"service\":0}"},"geometry":{"type":"Point","coordinates":[-47.92972,-15.77972]}},{"type":"Feature","properties":{"country_code":"NGA","city":"Lagos","geoname_id":"2332459","downloaders":"{\"size\":1569,\"mobile\":626,\"satellite\":0,\"tor\":0,\"tor_exit_nodes\":0,\"vpn\":17,\"relay\":0,\"proxy\":0,\"hosting\":135,\"service\":5}","uploaders":"{\"size\":281,\"mobile\":105,\"satellite\":0,\"tor\":0,\"tor_exit_nodes\":0,\"vpn\":8,\"relay\":0,\"proxy\":0,\"hosting\":26,\"service\":3}"},"geometry":{"type":"Point","coordinates":[3.39467,6.45407]}},{"type":"Feature","properties":{"country_code":"SVN","city":"Ljubljana","geoname_id":"3196359","downloaders":"{\"size\":1549,\"mobile\":106,\"satellite\":1,\"tor\":0,\"tor_exit_nodes\":0,\"vpn\":97,\"relay\":0,\"proxy\":0,\"hosting\":83,\"service\":78}","uploaders":"{\"size\":272,\"mobile\":24,\"satellite\":1,\"tor\":0,\"tor_exit_nodes\":0,\"vpn\":20,\"relay\":0,\"proxy\":0,\"hosting\":18,\"service\":17}"},"geometry":{"type":"Point","coordinates":[14.50513,46.05108]}},{"type":"Feature","properties":{"country_code":"CHN","city":"Chongqing","geoname_id":"1814906","downloaders":"{\"size\":1545,\"mobile\":0,\"satellite\":0,\"tor\":0,\"tor_exit_nodes\":0,\"vpn\":29,\"relay\":0,\"proxy\":0,\"hosting\":24,\"service\":0}","uploaders":"{\"size\":301,\"mobile\":0,\"satellite\":0,\"tor\":0,\"tor_exit_nodes\":0,\"vpn\":6,\"relay\":0,\"proxy\":0,\"hosting\":8,\"service\":0}"},"geometry":{"type":"Point","coordinates":[106.55771,29.56026]}},{"type":"Feature","properties":{"country_code":"USA","city":"Santa Clara","geoname_id":"5393015","downloaders":"{\"size\":1536,\"mobile\":2,\"satellite\":0,\"tor\":0,\"tor_exit_nodes\":0,\"vpn\":946,\"relay\":0,\"proxy\":0,\"hosting\":1463,\"service\":940}","uploaders":"{\"size\":320,\"mobile\":0,\"satellite\":0,\"tor\":0,\"tor_exit_nodes\":0,\"vpn\":224,\"relay\":0,\"proxy\":0,\"hosting\":304,\"service\":224}"},"geometry":{"type":"Point","coordinates":[-121.9623,37.3924]}},{"type":"Feature","properties":{"country_code":"AUS","city":"Adelaide","geoname_id":"2078025","downloaders":"{\"size\":1519,\"mobile\":135,\"satellite\":0,\"tor\":0,\"tor_exit_nodes\":0,\"vpn\":241,\"relay\":0,\"proxy\":0,\"hosting\":302,\"service\":217}","uploaders":"{\"size\":499,\"mobile\":44,\"satellite\":0,\"tor\":0,\"tor_exit_nodes\":0,\"vpn\":54,\"relay\":0,\"proxy\":0,\"hosting\":66,\"service\":46}"},"geometry":{"type":"Point","coordinates":[138.59863000000001,-34.92866]}},{"type":"Feature","properties":{"country_code":"CHN","city":"Tianjin","geoname_id":"1792947","downloaders":"{\"size\":1508,\"mobile\":0,\"satellite\":0,\"tor\":0,\"tor_exit_nodes\":0,\"vpn\":13,\"relay\":0,\"proxy\":0,\"hosting\":6,\"service\":0}","uploaders":"{\"size\":276,\"mobile\":0,\"satellite\":0,\"tor\":0,\"tor_exit_nodes\":0,\"vpn\":2,\"relay\":0,\"proxy\":0,\"hosting\":1,\"service\":0}"},"geometry":{"type":"Point","coordinates":[117.17667,39.14222]}},{"type":"Feature","properties":{"country_code":"RUS","city":"Lipetsk","geoname_id":"535121","downloaders":"{\"size\":1502,\"mobile\":53,\"satellite\":0,\"tor\":0,\"tor_exit_nodes\":0,\"vpn\":5,\"relay\":0,\"proxy\":0,\"hosting\":0,\"service\":0}","uploaders":"{\"size\":49,\"mobile\":11,\"satellite\":0,\"tor\":0,\"tor_exit_nodes\":0,\"vpn\":0,\"relay\":0,\"proxy\":0,\"hosting\":0,\"service\":0}"},"geometry":{"type":"Point","coordinates":[39.57076,52.60311]}},{"type":"Feature","properties":{"country_code":"ESP","city":"Valencia","geoname_id":"2509954","downloaders":"{\"size\":1502,\"mobile\":530,\"satellite\":0,\"tor\":0,\"tor_exit_nodes\":0,\"vpn\":7,\"relay\":0,\"proxy\":0,\"hosting\":2,\"service\":0}","uploaders":"{\"size\":391,\"mobile\":123,\"satellite\":0,\"tor\":0,\"tor_exit_nodes\":0,\"vpn\":0,\"relay\":0,\"proxy\":0,\"hosting\":1,\"service\":0}"},"geometry":{"type":"Point","coordinates":[-0.37966,39.47391]}},{"type":"Feature","properties":{"country_code":"TWN","city":"Taichung","geoname_id":"1668399","downloaders":"{\"size\":1499,\"mobile\":253,\"satellite\":0,\"tor\":0,\"tor_exit_nodes\":0,\"vpn\":17,\"relay\":0,\"proxy\":0,\"hosting\":1,\"service\":0}","uploaders":"{\"size\":154,\"mobile\":21,\"satellite\":0,\"tor\":0,\"tor_exit_nodes\":0,\"vpn\":1,\"relay\":0,\"proxy\":0,\"hosting\":0,\"service\":0}"},"geometry":{"type":"Point","coordinates":[120.6839,24.1469]}},{"type":"Feature","properties":{"country_code":"RUS","city":"Kazan","geoname_id":"551487","downloaders":"{\"size\":1496,\"mobile\":155,\"satellite\":0,\"tor\":0,\"tor_exit_nodes\":0,\"vpn\":4,\"relay\":0,\"proxy\":0,\"hosting\":19,\"service\":0}","uploaders":"{\"size\":59,\"mobile\":10,\"satellite\":0,\"tor\":0,\"tor_exit_nodes\":0,\"vpn\":1,\"relay\":0,\"proxy\":0,\"hosting\":0,\"service\":0}"},"geometry":{"type":"Point","coordinates":[49.12214,55.78874]}},{"type":"Feature","properties":{"country_code":"BLR","city":"Minsk","geoname_id":"625144","downloaders":"{\"size\":1455,\"mobile\":15,\"satellite\":0,\"tor\":0,\"tor_exit_nodes\":0,\"vpn\":41,\"relay\":0,\"proxy\":0,\"hosting\":77,\"service\":10}","uploaders":"{\"size\":99,\"mobile\":3,\"satellite\":0,\"tor\":0,\"tor_exit_nodes\":0,\"vpn\":0,\"relay\":0,\"proxy\":0,\"hosting\":5,\"service\":0}"},"geometry":{"type":"Point","coordinates":[27.56653,53.90019]}},{"type":"Feature","properties":{"country_code":"RUS","city":"Tula","geoname_id":"480562","downloaders":"{\"size\":1452,\"mobile\":162,\"satellite\":0,\"tor\":0,\"tor_exit_nodes\":0,\"vpn\":5,\"relay\":0,\"proxy\":0,\"hosting\":43,\"service\":0}","uploaders":"{\"size\":34,\"mobile\":10,\"satellite\":0,\"tor\":0,\"tor_exit_nodes\":0,\"vpn\":1,\"relay\":0,\"proxy\":0,\"hosting\":2,\"service\":0}"},"geometry":{"type":"Point","coordinates":[37.61822,54.19609]}},{"type":"Feature","properties":{"country_code":"MEX","city":"Mexico City","geoname_id":"3530597","downloaders":"{\"size\":1436,\"mobile\":29,\"satellite\":2,\"tor\":0,\"tor_exit_nodes\":0,\"vpn\":88,\"relay\":0,\"proxy\":0,\"hosting\":147,\"service\":88}","uploaders":"{\"size\":300,\"mobile\":5,\"satellite\":2,\"tor\":0,\"tor_exit_nodes\":0,\"vpn\":14,\"relay\":0,\"proxy\":0,\"hosting\":24,\"service\":14}"},"geometry":{"type":"Point","coordinates":[-99.12766,19.42847]}},{"type":"Feature","properties":{"country_code":"RUS","city":"Tver","geoname_id":"480060","downloaders":"{\"size\":1424,\"mobile\":5,\"satellite\":0,\"tor\":0,\"tor_exit_nodes\":0,\"vpn\":12,\"relay\":0,\"proxy\":0,\"hosting\":4,\"service\":0}","uploaders":"{\"size\":19,\"mobile\":0,\"satellite\":0,\"tor\":0,\"tor_exit_nodes\":0,\"vpn\":0,\"relay\":0,\"proxy\":0,\"hosting\":0,\"service\":0}"},"geometry":{"type":"Point","coordinates":[35.90057,56.85836]}},{"type":"Feature","properties":{"country_code":"URY","city":"Montevideo","geoname_id":"3441575","downloaders":"{\"size\":1418,\"mobile\":50,\"satellite\":0,\"tor\":0,\"tor_exit_nodes\":0,\"vpn\":15,\"relay\":0,\"proxy\":0,\"hosting\":0,\"service\":0}","uploaders":"{\"size\":333,\"mobile\":11,\"satellite\":0,\"tor\":0,\"tor_exit_nodes\":0,\"vpn\":4,\"relay\":0,\"proxy\":0,\"hosting\":0,\"service\":0}"},"geometry":{"type":"Point","coordinates":[-56.18816,-34.90328]}},{"type":"Feature","properties":{"country_code":"AGO","city":"Luanda","geoname_id":"2240449","downloaders":"{\"size\":1416,\"mobile\":13,\"satellite\":0,\"tor\":0,\"tor_exit_nodes\":0,\"vpn\":27,\"relay\":0,\"proxy\":0,\"hosting\":70,\"service\":0}","uploaders":"{\"size\":626,\"mobile\":7,\"satellite\":0,\"tor\":0,\"tor_exit_nodes\":0,\"vpn\":10,\"relay\":0,\"proxy\":0,\"hosting\":34,\"service\":0}"},"geometry":{"type":"Point","coordinates":[13.23432,-8.83682]}},{"type":"Feature","properties":{"country_code":"RUS","city":"Khimki","geoname_id":"550280","downloaders":"{\"size\":1402,\"mobile\":0,\"satellite\":0,\"tor\":0,\"tor_exit_nodes\":0,\"vpn\":98,\"relay\":0,\"proxy\":0,\"hosting\":348,\"service\":14}","uploaders":"{\"size\":34,\"mobile\":0,\"satellite\":0,\"tor\":0,\"tor_exit_nodes\":0,\"vpn\":2,\"relay\":0,\"proxy\":0,\"hosting\":10,\"service\":0}"},"geometry":{"type":"Point","coordinates":[37.42848,55.9001]}},{"type":"Feature","properties":{"country_code":"OMN","city":"Muscat","geoname_id":"287286","downloaders":"{\"size\":1388,\"mobile\":8,\"satellite\":0,\"tor\":0,\"tor_exit_nodes\":0,\"vpn\":0,\"relay\":0,\"proxy\":0,\"hosting\":15,\"service\":0}","uploaders":"{\"size\":345,\"mobile\":1,\"satellite\":0,\"tor\":0,\"tor_exit_nodes\":0,\"vpn\":0,\"relay\":0,\"proxy\":0,\"hosting\":3,\"service\":0}"},"geometry":{"type":"Point","coordinates":[58.40778,23.58413]}},{"type":"Feature","properties":{"country_code":"FRA","city":"Villecresnes","geoname_id":"2968823","downloaders":"{\"size\":1383,\"mobile\":1,\"satellite\":0,\"tor\":0,\"tor_exit_nodes\":0,\"vpn\":478,\"relay\":0,\"proxy\":0,\"hosting\":1381,\"service\":331}","uploaders":"{\"size\":98,\"mobile\":0,\"satellite\":0,\"tor\":0,\"tor_exit_nodes\":0,\"vpn\":23,\"relay\":0,\"proxy\":0,\"hosting\":98,\"service\":23}"},"geometry":{"type":"Point","coordinates":[2.5394,48.72002]}},{"type":"Feature","properties":{"country_code":"RUS","city":"Yaroslavl","geoname_id":"468902","downloaders":"{\"size\":1375,\"mobile\":59,\"satellite\":0,\"tor\":0,\"tor_exit_nodes\":0,\"vpn\":18,\"relay\":0,\"proxy\":0,\"hosting\":0,\"service\":0}","uploaders":"{\"size\":22,\"mobile\":6,\"satellite\":0,\"tor\":0,\"tor_exit_nodes\":0,\"vpn\":1,\"relay\":0,\"proxy\":0,\"hosting\":0,\"service\":0}"},"geometry":{"type":"Point","coordinates":[39.87368,57.62987]}},{"type":"Feature","properties":{"country_code":"DEU","city":"Nürnberg","geoname_id":"2861650","downloaders":"{\"size\":1338,\"mobile\":20,\"satellite\":0,\"tor\":74,\"tor_exit_nodes\":74,\"vpn\":28,\"relay\":0,\"proxy\":0,\"hosting\":1182,\"service\":25}","uploaders":"{\"size\":181,\"mobile\":0,\"satellite\":0,\"tor\":3,\"tor_exit_nodes\":3,\"vpn\":2,\"relay\":0,\"proxy\":0,\"hosting\":172,\"service\":2}"},"geometry":{"type":"Point","coordinates":[11.0222,49.4453]}},{"type":"Feature","properties":{"country_code":"RUS","city":"Balashikha","geoname_id":"579464","downloaders":"{\"size\":1337,\"mobile\":5,\"satellite\":0,\"tor\":0,\"tor_exit_nodes\":0,\"vpn\":33,\"relay\":0,\"proxy\":0,\"hosting\":40,\"service\":8}","uploaders":"{\"size\":21,\"mobile\":0,\"satellite\":0,\"tor\":0,\"tor_exit_nodes\":0,\"vpn\":0,\"relay\":0,\"proxy\":0,\"hosting\":0,\"service\":0}"},"geometry":{"type":"Point","coordinates":[37.94794,55.79479]}},{"type":"Feature","properties":{"country_code":"IND","city":"Mumbai","geoname_id":"1275339","downloaders":"{\"size\":1310,\"mobile\":174,\"satellite\":0,\"tor\":0,\"tor_exit_nodes\":0,\"vpn\":14,\"relay\":0,\"proxy\":0,\"hosting\":512,\"service\":13}","uploaders":"{\"size\":199,\"mobile\":21,\"satellite\":0,\"tor\":0,\"tor_exit_nodes\":0,\"vpn\":1,\"relay\":0,\"proxy\":0,\"hosting\":114,\"service\":1}"},"geometry":{"type":"Point","coordinates":[72.88261,19.07283]}},{"type":"Feature","properties":{"country_code":"DEU","city":"Berlin","geoname_id":"2950159","downloaders":"{\"size\":1302,\"mobile\":259,\"satellite\":0,\"tor\":203,\"tor_exit_nodes\":209,\"vpn\":305,\"relay\":0,\"proxy\":0,\"hosting\":419,\"service\":302}","uploaders":"{\"size\":174,\"mobile\":19,\"satellite\":0,\"tor\":9,\"tor_exit_nodes\":9,\"vpn\":42,\"relay\":0,\"proxy\":0,\"hosting\":48,\"service\":42}"},"geometry":{"type":"Point","coordinates":[13.41053,52.52437]}},{"type":"Feature","properties":{"country_code":"KOR","city":"Busan","geoname_id":"1838524","downloaders":"{\"size\":1291,\"mobile\":0,\"satellite\":0,\"tor\":0,\"tor_exit_nodes\":0,\"vpn\":8,\"relay\":0,\"proxy\":0,\"hosting\":0,\"service\":4}","uploaders":"{\"size\":52,\"mobile\":0,\"satellite\":0,\"tor\":0,\"tor_exit_nodes\":0,\"vpn\":2,\"relay\":0,\"proxy\":0,\"hosting\":0,\"service\":2}"},"geometry":{"type":"Point","coordinates":[129.03004,35.10168]}},{"type":"Feature","properties":{"country_code":"CHN","city":"Xi’an","geoname_id":"1790630","downloaders":"{\"size\":1284,\"mobile\":0,\"satellite\":0,\"tor\":0,\"tor_exit_nodes\":0,\"vpn\":17,\"relay\":0,\"proxy\":0,\"hosting\":0,\"service\":0}","uploaders":"{\"size\":252,\"mobile\":0,\"satellite\":0,\"tor\":0,\"tor_exit_nodes\":0,\"vpn\":4,\"relay\":0,\"proxy\":0,\"hosting\":0,\"service\":0}"},"geometry":{"type":"Point","coordinates":[108.92861,34.25833]}},{"type":"Feature","properties":{"country_code":"RUS","city":"Bryansk","geoname_id":"571476","downloaders":"{\"size\":1268,\"mobile\":0,\"satellite\":0,\"tor\":0,\"tor_exit_nodes\":0,\"vpn\":1,\"relay\":0,\"proxy\":0,\"hosting\":0,\"service\":0}","uploaders":"{\"size\":26,\"mobile\":0,\"satellite\":0,\"tor\":0,\"tor_exit_nodes\":0,\"vpn\":0,\"relay\":0,\"proxy\":0,\"hosting\":0,\"service\":0}"},"geometry":{"type":"Point","coordinates":[34.37167,53.25209]}},{"type":"Feature","properties":{"country_code":"EST","city":"Tallinn","geoname_id":"588409","downloaders":"{\"size\":1214,\"mobile\":160,\"satellite\":0,\"tor\":0,\"tor_exit_nodes\":0,\"vpn\":37,\"relay\":0,\"proxy\":0,\"hosting\":122,\"service\":27}","uploaders":"{\"size\":208,\"mobile\":27,\"satellite\":0,\"tor\":0,\"tor_exit_nodes\":0,\"vpn\":10,\"relay\":0,\"proxy\":0,\"hosting\":23,\"service\":9}"},"geometry":{"type":"Point","coordinates":[24.75353,59.43696]}},{"type":"Feature","properties":{"country_code":"RUS","city":"Kirov","geoname_id":"548408","downloaders":"{\"size\":1199,\"mobile\":8,\"satellite\":0,\"tor\":0,\"tor_exit_nodes\":0,\"vpn\":58,\"relay\":0,\"proxy\":0,\"hosting\":0,\"service\":52}","uploaders":"{\"size\":37,\"mobile\":0,\"satellite\":0,\"tor\":0,\"tor_exit_nodes\":0,\"vpn\":7,\"relay\":0,\"proxy\":0,\"hosting\":0,\"service\":5}"},"geometry":{"type":"Point","coordinates":[49.66007,58.59665]}},{"type":"Feature","properties":{"country_code":"RUS","city":"Cheboksary","geoname_id":"569696","downloaders":"{\"size\":1125,\"mobile\":74,\"satellite\":0,\"tor\":0,\"tor_exit_nodes\":0,\"vpn\":5,\"relay\":0,\"proxy\":0,\"hosting\":0,\"service\":0}","uploaders":"{\"size\":29,\"mobile\":2,\"satellite\":0,\"tor\":0,\"tor_exit_nodes\":0,\"vpn\":2,\"relay\":0,\"proxy\":0,\"hosting\":0,\"service\":0}"},"geometry":{"type":"Point","coordinates":[47.25194,56.13222]}},{"type":"Feature","properties":{"country_code":"UKR","city":"Kharkiv","geoname_id":"706483","downloaders":"{\"size\":1124,\"mobile\":14,\"satellite\":0,\"tor\":0,\"tor_exit_nodes\":0,\"vpn\":11,\"relay\":0,\"proxy\":0,\"hosting\":460,\"service\":7}","uploaders":"{\"size\":32,\"mobile\":0,\"satellite\":0,\"tor\":0,\"tor_exit_nodes\":0,\"vpn\":4,\"relay\":0,\"proxy\":0,\"hosting\":11,\"service\":3}"},"geometry":{"type":"Point","coordinates":[36.25475,49.98177]}},{"type":"Feature","properties":{"country_code":"BEL","city":"Zaventem","geoname_id":"2783310","downloaders":"{\"size\":1121,\"mobile\":0,\"satellite\":0,\"tor\":0,\"tor_exit_nodes\":0,\"vpn\":1061,\"relay\":0,\"proxy\":0,\"hosting\":1114,\"service\":1061}","uploaders":"{\"size\":392,\"mobile\":0,\"satellite\":0,\"tor\":0,\"tor_exit_nodes\":0,\"vpn\":377,\"relay\":0,\"proxy\":0,\"hosting\":390,\"service\":377}"},"geometry":{"type":"Point","coordinates":[4.47298,50.88365]}},{"type":"Feature","properties":{"country_code":"BRA","city":"Curitiba","geoname_id":"3464975","downloaders":"{\"size\":1116,\"mobile\":23,\"satellite\":0,\"tor\":0,\"tor_exit_nodes\":0,\"vpn\":0,\"relay\":0,\"proxy\":0,\"hosting\":394,\"service\":0}","uploaders":"{\"size\":353,\"mobile\":2,\"satellite\":0,\"tor\":0,\"tor_exit_nodes\":0,\"vpn\":0,\"relay\":0,\"proxy\":0,\"hosting\":127,\"service\":0}"},"geometry":{"type":"Point","coordinates":[-49.27306,-25.42778]}},{"type":"Feature","properties":{"country_code":"ETH","city":"Addis Ababa","geoname_id":"344979","downloaders":"{\"size\":1116,\"mobile\":655,\"satellite\":0,\"tor\":0,\"tor_exit_nodes\":0,\"vpn\":3,\"relay\":0,\"proxy\":0,\"hosting\":0,\"service\":0}","uploaders":"{\"size\":231,\"mobile\":127,\"satellite\":0,\"tor\":0,\"tor_exit_nodes\":0,\"vpn\":0,\"relay\":0,\"proxy\":0,\"hosting\":0,\"service\":0}"},"geometry":{"type":"Point","coordinates":[38.74689,9.02497]}},{"type":"Feature","properties":{"country_code":"PHL","city":"Manila","geoname_id":"1701668","downloaders":"{\"size\":1114,\"mobile\":83,\"satellite\":5,\"tor\":0,\"tor_exit_nodes\":0,\"vpn\":4,\"relay\":54,\"proxy\":0,\"hosting\":93,\"service\":58}","uploaders":"{\"size\":228,\"mobile\":20,\"satellite\":1,\"tor\":0,\"tor_exit_nodes\":0,\"vpn\":0,\"relay\":0,\"proxy\":0,\"hosting\":12,\"service\":0}"},"geometry":{"type":"Point","coordinates":[120.9822,14.6042]}},{"type":"Feature","properties":{"country_code":"UKR","city":"Dnipro","geoname_id":"709930","downloaders":"{\"size\":1104,\"mobile\":86,\"satellite\":0,\"tor\":0,\"tor_exit_nodes\":0,\"vpn\":28,\"relay\":0,\"proxy\":0,\"hosting\":175,\"service\":0}","uploaders":"{\"size\":253,\"mobile\":3,\"satellite\":0,\"tor\":0,\"tor_exit_nodes\":0,\"vpn\":2,\"relay\":0,\"proxy\":0,\"hosting\":4,\"service\":0}"},"geometry":{"type":"Point","coordinates":[35.04066,48.46664]}},{"type":"Feature","properties":{"country_code":"GRC","city":"Thessaloníki","geoname_id":"734077","downloaders":"{\"size\":1099,\"mobile\":34,\"satellite\":0,\"tor\":0,\"tor_exit_nodes\":0,\"vpn\":1,\"relay\":0,\"proxy\":0,\"hosting\":22,\"service\":0}","uploaders":"{\"size\":230,\"mobile\":5,\"satellite\":0,\"tor\":0,\"tor_exit_nodes\":0,\"vpn\":0,\"relay\":0,\"proxy\":0,\"hosting\":7,\"service\":0}"},"geometry":{"type":"Point","coordinates":[22.93086,40.64361]}},{"type":"Feature","properties":{"country_code":"UKR","city":"Odesa","geoname_id":"698740","downloaders":"{\"size\":1096,\"mobile\":0,\"satellite\":0,\"tor\":0,\"tor_exit_nodes\":0,\"vpn\":15,\"relay\":0,\"proxy\":0,\"hosting\":4,\"service\":1}","uploaders":"{\"size\":42,\"mobile\":0,\"satellite\":0,\"tor\":0,\"tor_exit_nodes\":0,\"vpn\":0,\"relay\":0,\"proxy\":0,\"hosting\":0,\"service\":0}"},"geometry":{"type":"Point","coordinates":[30.74383,46.48572]}},{"type":"Feature","properties":{"country_code":"BRA","city":"Belo Horizonte","geoname_id":"3470127","downloaders":"{\"size\":1095,\"mobile\":33,\"satellite\":0,\"tor\":0,\"tor_exit_nodes\":0,\"vpn\":4,\"relay\":0,\"proxy\":0,\"hosting\":17,\"service\":0}","uploaders":"{\"size\":346,\"mobile\":1,\"satellite\":0,\"tor\":0,\"tor_exit_nodes\":0,\"vpn\":3,\"relay\":0,\"proxy\":0,\"hosting\":8,\"service\":0}"},"geometry":{"type":"Point","coordinates":[-43.93778,-19.92083]}},{"type":"Feature","properties":{"country_code":"KOR","city":"Daegu","geoname_id":"1835329","downloaders":"{\"size\":1084,\"mobile\":1,\"satellite\":0,\"tor\":0,\"tor_exit_nodes\":0,\"vpn\":8,\"relay\":0,\"proxy\":0,\"hosting\":18,\"service\":0}","uploaders":"{\"size\":14,\"mobile\":0,\"satellite\":0,\"tor\":0,\"tor_exit_nodes\":0,\"vpn\":0,\"relay\":0,\"proxy\":0,\"hosting\":0,\"service\":0}"},"geometry":{"type":"Point","coordinates":[128.59111,35.87028]}},{"type":"Feature","properties":{"country_code":"ESP","city":"Sevilla","geoname_id":"2510911","downloaders":"{\"size\":1069,\"mobile\":719,\"satellite\":0,\"tor\":0,\"tor_exit_nodes\":0,\"vpn\":4,\"relay\":0,\"proxy\":0,\"hosting\":4,\"service\":4}","uploaders":"{\"size\":302,\"mobile\":207,\"satellite\":0,\"tor\":0,\"tor_exit_nodes\":0,\"vpn\":2,\"relay\":0,\"proxy\":0,\"hosting\":2,\"service\":2}"},"geometry":{"type":"Point","coordinates":[-5.97317,37.38283]}},{"type":"Feature","properties":{"country_code":"JPN","city":"Osaka","geoname_id":"1853909","downloaders":"{\"size\":1056,\"mobile\":74,\"satellite\":0,\"tor\":0,\"tor_exit_nodes\":0,\"vpn\":20,\"relay\":0,\"proxy\":0,\"hosting\":221,\"service\":15}","uploaders":"{\"size\":126,\"mobile\":11,\"satellite\":0,\"tor\":0,\"tor_exit_nodes\":0,\"vpn\":2,\"relay\":0,\"proxy\":0,\"hosting\":52,\"service\":0}"},"geometry":{"type":"Point","coordinates":[135.50107,34.69379]}},{"type":"Feature","properties":{"country_code":"RUS","city":"Novokuznetsk","geoname_id":"1496990","downloaders":"{\"size\":1054,\"mobile\":2,\"satellite\":0,\"tor\":0,\"tor_exit_nodes\":0,\"vpn\":0,\"relay\":0,\"proxy\":0,\"hosting\":0,\"service\":0}","uploaders":"{\"size\":6,\"mobile\":0,\"satellite\":0,\"tor\":0,\"tor_exit_nodes\":0,\"vpn\":0,\"relay\":0,\"proxy\":0,\"hosting\":0,\"service\":0}"},"geometry":{"type":"Point","coordinates":[87.13599,53.75752]}},{"type":"Feature","properties":{"country_code":"IND","city":"Ludhiana","geoname_id":"1264728","downloaders":"{\"size\":1049,\"mobile\":15,\"satellite\":0,\"tor\":0,\"tor_exit_nodes\":0,\"vpn\":0,\"relay\":0,\"proxy\":0,\"hosting\":0,\"service\":0}","uploaders":"{\"size\":22,\"mobile\":4,\"satellite\":0,\"tor\":0,\"tor_exit_nodes\":0,\"vpn\":0,\"relay\":0,\"proxy\":0,\"hosting\":0,\"service\":0}"},"geometry":{"type":"Point","coordinates":[75.85379,30.91204]}},{"type":"Feature","properties":{"country_code":"NLD","city":"Haarlem","geoname_id":"2755003","downloaders":"{\"size\":1044,\"mobile\":3,\"satellite\":0,\"tor\":0,\"tor_exit_nodes\":0,\"vpn\":279,\"relay\":0,\"proxy\":0,\"hosting\":922,\"service\":103}","uploaders":"{\"size\":130,\"mobile\":0,\"satellite\":0,\"tor\":0,\"tor_exit_nodes\":0,\"vpn\":37,\"relay\":0,\"proxy\":0,\"hosting\":71,\"service\":16}"},"geometry":{"type":"Point","coordinates":[4.6573,52.3904]}},{"type":"Feature","properties":{"country_code":"USA","city":"Las Vegas","geoname_id":"5506956","downloaders":"{\"size\":1037,\"mobile\":46,\"satellite\":0,\"tor\":10,\"tor_exit_nodes\":10,\"vpn\":399,\"relay\":0,\"proxy\":0,\"hosting\":386,\"service\":366}","uploaders":"{\"size\":123,\"mobile\":11,\"satellite\":0,\"tor\":1,\"tor_exit_nodes\":1,\"vpn\":52,\"relay\":0,\"proxy\":0,\"hosting\":51,\"service\":48}"},"geometry":{"type":"Point","coordinates":[-115.13722,36.17497]}},{"type":"Feature","properties":{"country_code":"RUS","city":"Odintsovo","geoname_id":"516215","downloaders":"{\"size\":1033,\"mobile\":0,\"satellite\":0,\"tor\":0,\"tor_exit_nodes\":0,\"vpn\":7,\"relay\":0,\"proxy\":0,\"hosting\":2,\"service\":0}","uploaders":"{\"size\":22,\"mobile\":0,\"satellite\":0,\"tor\":0,\"tor_exit_nodes\":0,\"vpn\":0,\"relay\":0,\"proxy\":0,\"hosting\":0,\"service\":0}"},"geometry":{"type":"Point","coordinates":[37.27716,55.66977]}},{"type":"Feature","properties":{"country_code":"VEN","city":"Caracas","geoname_id":"3646738","downloaders":"{\"size\":1019,\"mobile\":176,\"satellite\":0,\"tor\":0,\"tor_exit_nodes\":0,\"vpn\":3,\"relay\":0,\"proxy\":0,\"hosting\":0,\"service\":0}","uploaders":"{\"size\":236,\"mobile\":24,\"satellite\":0,\"tor\":0,\"tor_exit_nodes\":0,\"vpn\":0,\"relay\":0,\"proxy\":0,\"hosting\":0,\"service\":0}"},"geometry":{"type":"Point","coordinates":[-66.87919,10.48801]}},{"type":"Feature","properties":{"country_code":"BGD","city":"Dhaka","geoname_id":"1185241","downloaders":"{\"size\":1011,\"mobile\":41,\"satellite\":0,\"tor\":0,\"tor_exit_nodes\":0,\"vpn\":14,\"relay\":0,\"proxy\":0,\"hosting\":159,\"service\":5}","uploaders":"{\"size\":195,\"mobile\":0,\"satellite\":0,\"tor\":0,\"tor_exit_nodes\":0,\"vpn\":4,\"relay\":0,\"proxy\":0,\"hosting\":46,\"service\":2}"},"geometry":{"type":"Point","coordinates":[90.40744,23.7104]}},{"type":"Feature","properties":{"country_code":"JAM","city":"Kingston","geoname_id":"3489854","downloaders":"{\"size\":1004,\"mobile\":549,\"satellite\":0,\"tor\":0,\"tor_exit_nodes\":0,\"vpn\":22,\"relay\":0,\"proxy\":0,\"hosting\":48,\"service\":20}","uploaders":"{\"size\":273,\"mobile\":135,\"satellite\":0,\"tor\":0,\"tor_exit_nodes\":0,\"vpn\":2,\"relay\":0,\"proxy\":0,\"hosting\":14,\"service\":1}"},"geometry":{"type":"Point","coordinates":[-76.79358,17.99702]}},{"type":"Feature","properties":{"country_code":"SWE","city":"Göteborg","geoname_id":"2711537","downloaders":"{\"size\":1000,\"mobile\":89,\"satellite\":0,\"tor\":0,\"tor_exit_nodes\":0,\"vpn\":220,\"relay\":0,\"proxy\":0,\"hosting\":164,\"service\":213}","uploaders":"{\"size\":175,\"mobile\":24,\"satellite\":0,\"tor\":0,\"tor_exit_nodes\":0,\"vpn\":41,\"relay\":0,\"proxy\":0,\"hosting\":19,\"service\":38}"},"geometry":{"type":"Point","coordinates":[11.96679,57.70716]}},{"type":"Feature","properties":{"country_code":"TWN","city":"Taoyuan City","geoname_id":"6696918","downloaders":"{\"size\":995,\"mobile\":36,\"satellite\":0,\"tor\":0,\"tor_exit_nodes\":0,\"vpn\":17,\"relay\":0,\"proxy\":0,\"hosting\":1,\"service\":0}","uploaders":"{\"size\":142,\"mobile\":8,\"satellite\":0,\"tor\":0,\"tor_exit_nodes\":0,\"vpn\":2,\"relay\":0,\"proxy\":0,\"hosting\":0,\"service\":0}"},"geometry":{"type":"Point","coordinates":[121.29696,24.99368]}},{"type":"Feature","properties":{"country_code":"RUS","city":"Penza","geoname_id":"511565","downloaders":"{\"size\":993,\"mobile\":47,\"satellite\":0,\"tor\":0,\"tor_exit_nodes\":0,\"vpn\":26,\"relay\":0,\"proxy\":0,\"hosting\":0,\"service\":2}","uploaders":"{\"size\":31,\"mobile\":3,\"satellite\":0,\"tor\":0,\"tor_exit_nodes\":0,\"vpn\":0,\"relay\":0,\"proxy\":0,\"hosting\":0,\"service\":0}"},"geometry":{"type":"Point","coordinates":[45.00464,53.20066]}},{"type":"Feature","properties":{"country_code":"RUS","city":"Ivanovo","geoname_id":"555312","downloaders":"{\"size\":990,\"mobile\":17,\"satellite\":0,\"tor\":0,\"tor_exit_nodes\":0,\"vpn\":9,\"relay\":0,\"proxy\":0,\"hosting\":0,\"service\":0}","uploaders":"{\"size\":20,\"mobile\":0,\"satellite\":0,\"tor\":0,\"tor_exit_nodes\":0,\"vpn\":0,\"relay\":0,\"proxy\":0,\"hosting\":0,\"service\":0}"},"geometry":{"type":"Point","coordinates":[40.97139,56.99719]}},{"type":"Feature","properties":{"country_code":"RUS","city":"Noginsk","geoname_id":"520068","downloaders":"{\"size\":983,\"mobile\":0,\"satellite\":0,\"tor\":0,\"tor_exit_nodes\":0,\"vpn\":27,\"relay\":0,\"proxy\":0,\"hosting\":2,\"service\":15}","uploaders":"{\"size\":9,\"mobile\":0,\"satellite\":0,\"tor\":0,\"tor_exit_nodes\":0,\"vpn\":0,\"relay\":0,\"proxy\":0,\"hosting\":0,\"service\":0}"},"geometry":{"type":"Point","coordinates":[38.44853,55.86486]}},{"type":"Feature","properties":{"country_code":"USA","city":"Minneapolis","geoname_id":"5037649","downloaders":"{\"size\":977,\"mobile\":123,\"satellite\":0,\"tor\":0,\"tor_exit_nodes\":0,\"vpn\":4,\"relay\":0,\"proxy\":0,\"hosting\":2,\"service\":0}","uploaders":"{\"size\":142,\"mobile\":20,\"satellite\":0,\"tor\":0,\"tor_exit_nodes\":0,\"vpn\":0,\"relay\":0,\"proxy\":0,\"hosting\":0,\"service\":0}"},"geometry":{"type":"Point","coordinates":[-93.26384,44.97997]}},{"type":"Feature","properties":{"country_code":"CHN","city":"Harbin","geoname_id":"2037013","downloaders":"{\"size\":977,\"mobile\":0,\"satellite\":0,\"tor\":0,\"tor_exit_nodes\":0,\"vpn\":13,\"relay\":0,\"proxy\":0,\"hosting\":0,\"service\":0}","uploaders":"{\"size\":166,\"mobile\":0,\"satellite\":0,\"tor\":0,\"tor_exit_nodes\":0,\"vpn\":1,\"relay\":0,\"proxy\":0,\"hosting\":0,\"service\":0}"},"geometry":{"type":"Point","coordinates":[126.65,45.75]}},{"type":"Feature","properties":{"country_code":"GBR","city":"Ipswich","geoname_id":"2646057","downloaders":"{\"size\":975,\"mobile\":211,\"satellite\":0,\"tor\":0,\"tor_exit_nodes\":0,\"vpn\":0,\"relay\":0,\"proxy\":0,\"hosting\":0,\"service\":0}","uploaders":"{\"size\":225,\"mobile\":33,\"satellite\":0,\"tor\":0,\"tor_exit_nodes\":0,\"vpn\":0,\"relay\":0,\"proxy\":0,\"hosting\":0,\"service\":0}"},"geometry":{"type":"Point","coordinates":[1.15545,52.05917]}},{"type":"Feature","properties":{"country_code":"USA","city":"Jersey City","geoname_id":"5099836","downloaders":"{\"size\":970,\"mobile\":0,\"satellite\":0,\"tor\":0,\"tor_exit_nodes\":0,\"vpn\":3,\"relay\":0,\"proxy\":0,\"hosting\":541,\"service\":0}","uploaders":"{\"size\":139,\"mobile\":0,\"satellite\":0,\"tor\":0,\"tor_exit_nodes\":0,\"vpn\":0,\"relay\":0,\"proxy\":0,\"hosting\":86,\"service\":0}"},"geometry":{"type":"Point","coordinates":[-74.07764,40.72816]}},{"type":"Feature","properties":{"country_code":"KAZ","city":"Almaty","geoname_id":"1526384","downloaders":"{\"size\":969,\"mobile\":126,\"satellite\":0,\"tor\":0,\"tor_exit_nodes\":0,\"vpn\":10,\"relay\":0,\"proxy\":0,\"hosting\":44,\"service\":0}","uploaders":"{\"size\":88,\"mobile\":9,\"satellite\":0,\"tor\":0,\"tor_exit_nodes\":0,\"vpn\":3,\"relay\":0,\"proxy\":0,\"hosting\":3,\"service\":0}"},"geometry":{"type":"Point","coordinates":[76.9115,43.25249]}},{"type":"Feature","properties":{"country_code":"RUS","city":"Khabarovsk","geoname_id":"2022890","downloaders":"{\"size\":967,\"mobile\":83,\"satellite\":0,\"tor\":0,\"tor_exit_nodes\":0,\"vpn\":11,\"relay\":0,\"proxy\":0,\"hosting\":0,\"service\":11}","uploaders":"{\"size\":79,\"mobile\":4,\"satellite\":0,\"tor\":0,\"tor_exit_nodes\":0,\"vpn\":0,\"relay\":0,\"proxy\":0,\"hosting\":0,\"service\":0}"},"geometry":{"type":"Point","coordinates":[135.08822,48.48032]}},{"type":"Feature","properties":{"country_code":"BRA","city":"Campinas","geoname_id":"3467865","downloaders":"{\"size\":967,\"mobile\":101,\"satellite\":0,\"tor\":0,\"tor_exit_nodes\":0,\"vpn\":0,\"relay\":0,\"proxy\":0,\"hosting\":30,\"service\":0}","uploaders":"{\"size\":318,\"mobile\":34,\"satellite\":0,\"tor\":0,\"tor_exit_nodes\":0,\"vpn\":0,\"relay\":0,\"proxy\":0,\"hosting\":1,\"service\":0}"},"geometry":{"type":"Point","coordinates":[-47.06083,-22.90556]}},{"type":"Feature","properties":{"country_code":"IDN","city":"Jakarta","geoname_id":"1642911","downloaders":"{\"size\":964,\"mobile\":219,\"satellite\":0,\"tor\":0,\"tor_exit_nodes\":0,\"vpn\":18,\"relay\":0,\"proxy\":0,\"hosting\":122,\"service\":3}","uploaders":"{\"size\":267,\"mobile\":31,\"satellite\":0,\"tor\":0,\"tor_exit_nodes\":0,\"vpn\":2,\"relay\":0,\"proxy\":0,\"hosting\":46,\"service\":0}"},"geometry":{"type":"Point","coordinates":[106.84513,-6.21462]}},{"type":"Feature","properties":{"country_code":"RUS","city":"Ryazan’","geoname_id":"500096","downloaders":"{\"size\":958,\"mobile\":93,\"satellite\":0,\"tor\":0,\"tor_exit_nodes\":0,\"vpn\":24,\"relay\":0,\"proxy\":0,\"hosting\":1,\"service\":9}","uploaders":"{\"size\":56,\"mobile\":17,\"satellite\":0,\"tor\":0,\"tor_exit_nodes\":0,\"vpn\":0,\"relay\":0,\"proxy\":0,\"hosting\":0,\"service\":0}"},"geometry":{"type":"Point","coordinates":[39.6916,54.6269]}},{"type":"Feature","properties":{"country_code":"RUS","city":"Vladimir","geoname_id":"473247","downloaders":"{\"size\":951,\"mobile\":25,\"satellite\":0,\"tor\":0,\"tor_exit_nodes\":0,\"vpn\":6,\"relay\":0,\"proxy\":0,\"hosting\":0,\"service\":0}","uploaders":"{\"size\":16,\"mobile\":5,\"satellite\":0,\"tor\":0,\"tor_exit_nodes\":0,\"vpn\":0,\"relay\":0,\"proxy\":0,\"hosting\":0,\"service\":0}"},"geometry":{"type":"Point","coordinates":[40.39658,56.13655]}},{"type":"Feature","properties":{"country_code":"RUS","city":"Ulyanovsk","geoname_id":"479123","downloaders":"{\"size\":941,\"mobile\":28,\"satellite\":0,\"tor\":0,\"tor_exit_nodes\":0,\"vpn\":3,\"relay\":0,\"proxy\":0,\"hosting\":0,\"service\":0}","uploaders":"{\"size\":30,\"mobile\":4,\"satellite\":0,\"tor\":0,\"tor_exit_nodes\":0,\"vpn\":0,\"relay\":0,\"proxy\":0,\"hosting\":0,\"service\":0}"},"geometry":{"type":"Point","coordinates":[48.38657,54.32824]}},{"type":"Feature","properties":{"country_code":"NLD","city":"Rotterdam","geoname_id":"2747891","downloaders":"{\"size\":938,\"mobile\":93,\"satellite\":0,\"tor\":0,\"tor_exit_nodes\":0,\"vpn\":33,\"relay\":0,\"proxy\":0,\"hosting\":436,\"service\":32}","uploaders":"{\"size\":307,\"mobile\":16,\"satellite\":0,\"tor\":0,\"tor_exit_nodes\":0,\"vpn\":6,\"relay\":0,\"proxy\":0,\"hosting\":196,\"service\":6}"},"geometry":{"type":"Point","coordinates":[4.47917,51.9225]}},{"type":"Feature","properties":{"country_code":"SAU","city":"Riyadh","geoname_id":"108410","downloaders":"{\"size\":935,\"mobile\":469,\"satellite\":0,\"tor\":0,\"tor_exit_nodes\":0,\"vpn\":0,\"relay\":0,\"proxy\":0,\"hosting\":2,\"service\":0}","uploaders":"{\"size\":260,\"mobile\":108,\"satellite\":0,\"tor\":0,\"tor_exit_nodes\":0,\"vpn\":0,\"relay\":0,\"proxy\":0,\"hosting\":0,\"service\":0}"},"geometry":{"type":"Point","coordinates":[46.72185,24.68773]}},{"type":"Feature","properties":{"country_code":"CHN","city":"Guangzhou","geoname_id":"1809858","downloaders":"{\"size\":928,\"mobile\":1,\"satellite\":0,\"tor\":0,\"tor_exit_nodes\":0,\"vpn\":2,\"relay\":0,\"proxy\":0,\"hosting\":92,\"service\":0}","uploaders":"{\"size\":153,\"mobile\":0,\"satellite\":0,\"tor\":0,\"tor_exit_nodes\":0,\"vpn\":1,\"relay\":0,\"proxy\":0,\"hosting\":5,\"service\":0}"},"geometry":{"type":"Point","coordinates":[113.25,23.11667]}},{"type":"Feature","properties":{"country_code":"KOR","city":"Suwon","geoname_id":"1835553","downloaders":"{\"size\":928,\"mobile\":0,\"satellite\":0,\"tor\":0,\"tor_exit_nodes\":0,\"vpn\":7,\"relay\":0,\"proxy\":0,\"hosting\":0,\"service\":0}","uploaders":"{\"size\":27,\"mobile\":0,\"satellite\":0,\"tor\":0,\"tor_exit_nodes\":0,\"vpn\":0,\"relay\":0,\"proxy\":0,\"hosting\":0,\"service\":0}"},"geometry":{"type":"Point","coordinates":[127.00889,37.29111]}},{"type":"Feature","properties":{"country_code":"RUS","city":"Podolsk","geoname_id":"508101","downloaders":"{\"size\":922,\"mobile\":0,\"satellite\":0,\"tor\":0,\"tor_exit_nodes\":0,\"vpn\":14,\"relay\":0,\"proxy\":0,\"hosting\":7,\"service\":0}","uploaders":"{\"size\":12,\"mobile\":0,\"satellite\":0,\"tor\":0,\"tor_exit_nodes\":0,\"vpn\":0,\"relay\":0,\"proxy\":0,\"hosting\":0,\"service\":0}"},"geometry":{"type":"Point","coordinates":[37.55472,55.42419]}},{"type":"Feature","properties":{"country_code":"BRA","city":"Fortaleza","geoname_id":"3399415","downloaders":"{\"size\":908,\"mobile\":42,\"satellite\":0,\"tor\":0,\"tor_exit_nodes\":0,\"vpn\":15,\"relay\":0,\"proxy\":0,\"hosting\":13,\"service\":0}","uploaders":"{\"size\":230,\"mobile\":8,\"satellite\":0,\"tor\":0,\"tor_exit_nodes\":0,\"vpn\":0,\"relay\":0,\"proxy\":0,\"hosting\":1,\"service\":0}"},"geometry":{"type":"Point","coordinates":[-38.54306,-3.71722]}},{"type":"Feature","properties":{"country_code":"CHN","city":"Jiaxing","geoname_id":"1805953","downloaders":"{\"size\":904,\"mobile\":0,\"satellite\":0,\"tor\":0,\"tor_exit_nodes\":0,\"vpn\":17,\"relay\":0,\"proxy\":0,\"hosting\":0,\"service\":0}","uploaders":"{\"size\":135,\"mobile\":0,\"satellite\":0,\"tor\":0,\"tor_exit_nodes\":0,\"vpn\":4,\"relay\":0,\"proxy\":0,\"hosting\":0,\"service\":0}"},"geometry":{"type":"Point","coordinates":[120.75,30.7522]}},{"type":"Feature","properties":{"country_code":"MYS","city":"Cyberjaya","geoname_id":"6930887","downloaders":"{\"size\":901,\"mobile\":0,\"satellite\":0,\"tor\":0,\"tor_exit_nodes\":0,\"vpn\":3,\"relay\":0,\"proxy\":0,\"hosting\":0,\"service\":0}","uploaders":"{\"size\":269,\"mobile\":0,\"satellite\":0,\"tor\":0,\"tor_exit_nodes\":0,\"vpn\":0,\"relay\":0,\"proxy\":0,\"hosting\":0,\"service\":0}"},"geometry":{"type":"Point","coordinates":[101.65718,2.92281]}},{"type":"Feature","properties":{"country_code":"JPN","city":"Yokohama","geoname_id":"1848354","downloaders":"{\"size\":898,\"mobile\":66,\"satellite\":0,\"tor\":0,\"tor_exit_nodes\":0,\"vpn\":13,\"relay\":0,\"proxy\":0,\"hosting\":20,\"service\":4}","uploaders":"{\"size\":107,\"mobile\":13,\"satellite\":0,\"tor\":0,\"tor_exit_nodes\":0,\"vpn\":0,\"relay\":0,\"proxy\":0,\"hosting\":0,\"service\":0}"},"geometry":{"type":"Point","coordinates":[139.65,35.43333]}},{"type":"Feature","properties":{"country_code":"NLD","city":"Amersfoort","geoname_id":"2759821","downloaders":"{\"size\":893,\"mobile\":0,\"satellite\":0,\"tor\":0,\"tor_exit_nodes\":0,\"vpn\":773,\"relay\":0,\"proxy\":0,\"hosting\":801,\"service\":771}","uploaders":"{\"size\":319,\"mobile\":0,\"satellite\":0,\"tor\":0,\"tor_exit_nodes\":0,\"vpn\":308,\"relay\":0,\"proxy\":0,\"hosting\":310,\"service\":308}"},"geometry":{"type":"Point","coordinates":[5.3875,52.155]}},{"type":"Feature","properties":{"country_code":"FRA","city":"Marseille","geoname_id":"2995469","downloaders":"{\"size\":886,\"mobile\":68,\"satellite\":0,\"tor\":0,\"tor_exit_nodes\":0,\"vpn\":288,\"relay\":0,\"proxy\":0,\"hosting\":616,\"service\":288}","uploaders":"{\"size\":135,\"mobile\":12,\"satellite\":0,\"tor\":0,\"tor_exit_nodes\":0,\"vpn\":50,\"relay\":0,\"proxy\":0,\"hosting\":101,\"service\":50}"},"geometry":{"type":"Point","coordinates":[5.38107,43.29695]}},{"type":"Feature","properties":{"country_code":"ISL","city":"Reykjavík","geoname_id":"3413829","downloaders":"{\"size\":883,\"mobile\":44,\"satellite\":0,\"tor\":0,\"tor_exit_nodes\":0,\"vpn\":432,\"relay\":0,\"proxy\":0,\"hosting\":440,\"service\":430}","uploaders":"{\"size\":258,\"mobile\":22,\"satellite\":0,\"tor\":0,\"tor_exit_nodes\":0,\"vpn\":135,\"relay\":0,\"proxy\":0,\"hosting\":136,\"service\":135}"},"geometry":{"type":"Point","coordinates":[-21.89541,64.13548]}},{"type":"Feature","properties":{"country_code":"BRA","city":"Ipatinga","geoname_id":"3461144","downloaders":"{\"size\":883,\"mobile\":0,\"satellite\":0,\"tor\":0,\"tor_exit_nodes\":0,\"vpn\":0,\"relay\":0,\"proxy\":0,\"hosting\":0,\"service\":0}","uploaders":"{\"size\":369,\"mobile\":0,\"satellite\":0,\"tor\":0,\"tor_exit_nodes\":0,\"vpn\":0,\"relay\":0,\"proxy\":0,\"hosting\":0,\"service\":0}"},"geometry":{"type":"Point","coordinates":[-42.53667,-19.46833]}},{"type":"Feature","properties":{"country_code":"MWI","city":"Blantyre","geoname_id":"931755","downloaders":"{\"size\":882,\"mobile\":631,\"satellite\":0,\"tor\":0,\"tor_exit_nodes\":0,\"vpn\":0,\"relay\":0,\"proxy\":0,\"hosting\":0,\"service\":0}","uploaders":"{\"size\":83,\"mobile\":43,\"satellite\":0,\"tor\":0,\"tor_exit_nodes\":0,\"vpn\":0,\"relay\":0,\"proxy\":0,\"hosting\":0,\"service\":0}"},"geometry":{"type":"Point","coordinates":[35.00854,-15.78499]}},{"type":"Feature","properties":{"country_code":"PRT","city":"Porto","geoname_id":"2735943","downloaders":"{\"size\":882,\"mobile\":60,\"satellite\":0,\"tor\":0,\"tor_exit_nodes\":0,\"vpn\":2,\"relay\":0,\"proxy\":0,\"hosting\":0,\"service\":0}","uploaders":"{\"size\":213,\"mobile\":19,\"satellite\":0,\"tor\":0,\"tor_exit_nodes\":0,\"vpn\":2,\"relay\":0,\"proxy\":0,\"hosting\":0,\"service\":0}"},"geometry":{"type":"Point","coordinates":[-8.61099,41.14961]}},{"type":"Feature","properties":{"country_code":"RUS","city":"Vladivostok","geoname_id":"2013348","downloaders":"{\"size\":881,\"mobile\":22,\"satellite\":0,\"tor\":0,\"tor_exit_nodes\":0,\"vpn\":127,\"relay\":0,\"proxy\":0,\"hosting\":1,\"service\":78}","uploaders":"{\"size\":45,\"mobile\":0,\"satellite\":0,\"tor\":0,\"tor_exit_nodes\":0,\"vpn\":10,\"relay\":0,\"proxy\":0,\"hosting\":0,\"service\":8}"},"geometry":{"type":"Point","coordinates":[131.87353,43.10562]}},{"type":"Feature","properties":{"country_code":"CAN","city":"Calgary","geoname_id":"5913490","downloaders":"{\"size\":877,\"mobile\":251,\"satellite\":0,\"tor\":0,\"tor_exit_nodes\":0,\"vpn\":8,\"relay\":0,\"proxy\":0,\"hosting\":33,\"service\":0}","uploaders":"{\"size\":186,\"mobile\":44,\"satellite\":0,\"tor\":0,\"tor_exit_nodes\":0,\"vpn\":4,\"relay\":0,\"proxy\":0,\"hosting\":7,\"service\":0}"},"geometry":{"type":"Point","coordinates":[-114.08529,51.05011]}},{"type":"Feature","properties":{"country_code":"DNK","city":"Copenhagen","geoname_id":"2618425","downloaders":"{\"size\":874,\"mobile\":137,\"satellite\":0,\"tor\":0,\"tor_exit_nodes\":0,\"vpn\":77,\"relay\":31,\"proxy\":0,\"hosting\":119,\"service\":98}","uploaders":"{\"size\":159,\"mobile\":35,\"satellite\":0,\"tor\":0,\"tor_exit_nodes\":0,\"vpn\":11,\"relay\":0,\"proxy\":0,\"hosting\":15,\"service\":11}"},"geometry":{"type":"Point","coordinates":[12.56553,55.67594]}},{"type":"Feature","properties":{"country_code":"RUS","city":"Orenburg","geoname_id":"515003","downloaders":"{\"size\":868,\"mobile\":2,\"satellite\":0,\"tor\":0,\"tor_exit_nodes\":0,\"vpn\":30,\"relay\":0,\"proxy\":0,\"hosting\":0,\"service\":13}","uploaders":"{\"size\":28,\"mobile\":0,\"satellite\":0,\"tor\":0,\"tor_exit_nodes\":0,\"vpn\":1,\"relay\":0,\"proxy\":0,\"hosting\":0,\"service\":1}"},"geometry":{"type":"Point","coordinates":[55.0988,51.7727]}},{"type":"Feature","properties":{"country_code":"RUS","city":"Naberezhnyye Chelny","geoname_id":"523750","downloaders":"{\"size\":848,\"mobile\":31,\"satellite\":0,\"tor\":0,\"tor_exit_nodes\":0,\"vpn\":7,\"relay\":0,\"proxy\":0,\"hosting\":0,\"service\":0}","uploaders":"{\"size\":18,\"mobile\":10,\"satellite\":0,\"tor\":0,\"tor_exit_nodes\":0,\"vpn\":0,\"relay\":0,\"proxy\":0,\"hosting\":0,\"service\":0}"},"geometry":{"type":"Point","coordinates":[52.41122,55.72545]}},{"type":"Feature","properties":{"country_code":"CAN","city":"Edmonton","geoname_id":"5946768","downloaders":"{\"size\":848,\"mobile\":211,\"satellite\":0,\"tor\":0,\"tor_exit_nodes\":0,\"vpn\":5,\"relay\":0,\"proxy\":0,\"hosting\":18,\"service\":0}","uploaders":"{\"size\":236,\"mobile\":47,\"satellite\":0,\"tor\":0,\"tor_exit_nodes\":0,\"vpn\":2,\"relay\":0,\"proxy\":0,\"hosting\":4,\"service\":0}"},"geometry":{"type":"Point","coordinates":[-113.46871,53.55014]}},{"type":"Feature","properties":{"country_code":"IND","city":"Delhi","geoname_id":"1273294","downloaders":"{\"size\":840,\"mobile\":210,\"satellite\":0,\"tor\":0,\"tor_exit_nodes\":0,\"vpn\":3,\"relay\":0,\"proxy\":0,\"hosting\":41,\"service\":0}","uploaders":"{\"size\":107,\"mobile\":44,\"satellite\":0,\"tor\":0,\"tor_exit_nodes\":0,\"vpn\":0,\"relay\":0,\"proxy\":0,\"hosting\":10,\"service\":0}"},"geometry":{"type":"Point","coordinates":[77.23149,28.65195]}},{"type":"Feature","properties":{"country_code":"RUS","city":"Izhevsk","geoname_id":"554840","downloaders":"{\"size\":837,\"mobile\":29,\"satellite\":0,\"tor\":0,\"tor_exit_nodes\":0,\"vpn\":8,\"relay\":0,\"proxy\":0,\"hosting\":0,\"service\":2}","uploaders":"{\"size\":10,\"mobile\":0,\"satellite\":0,\"tor\":0,\"tor_exit_nodes\":0,\"vpn\":0,\"relay\":0,\"proxy\":0,\"hosting\":0,\"service\":0}"},"geometry":{"type":"Point","coordinates":[53.20448,56.84976]}},{"type":"Feature","properties":{"country_code":"USA","city":"Newark","geoname_id":"5101798","downloaders":"{\"size\":837,\"mobile\":0,\"satellite\":0,\"tor\":0,\"tor_exit_nodes\":0,\"vpn\":3,\"relay\":0,\"proxy\":0,\"hosting\":241,\"service\":0}","uploaders":"{\"size\":115,\"mobile\":0,\"satellite\":0,\"tor\":0,\"tor_exit_nodes\":0,\"vpn\":0,\"relay\":0,\"proxy\":0,\"hosting\":29,\"service\":0}"},"geometry":{"type":"Point","coordinates":[-74.17237,40.73566]}},{"type":"Feature","properties":{"country_code":"TWN","city":"Kaohsiung","geoname_id":"1673820","downloaders":"{\"size\":832,\"mobile\":42,\"satellite\":0,\"tor\":0,\"tor_exit_nodes\":0,\"vpn\":20,\"relay\":0,\"proxy\":0,\"hosting\":0,\"service\":0}","uploaders":"{\"size\":104,\"mobile\":16,\"satellite\":0,\"tor\":0,\"tor_exit_nodes\":0,\"vpn\":2,\"relay\":0,\"proxy\":0,\"hosting\":0,\"service\":0}"},"geometry":{"type":"Point","coordinates":[120.31333,22.61626]}},{"type":"Feature","properties":{"country_code":"RUS","city":"Lyubertsy","geoname_id":"532615","downloaders":"{\"size\":811,\"mobile\":0,\"satellite\":0,\"tor\":0,\"tor_exit_nodes\":0,\"vpn\":21,\"relay\":0,\"proxy\":0,\"hosting\":118,\"service\":1}","uploaders":"{\"size\":29,\"mobile\":0,\"satellite\":0,\"tor\":0,\"tor_exit_nodes\":0,\"vpn\":1,\"relay\":0,\"proxy\":0,\"hosting\":0,\"service\":0}"},"geometry":{"type":"Point","coordinates":[37.89322,55.67719]}},{"type":"Feature","properties":{"country_code":"USA","city":"St. Louis","geoname_id":"4407066","downloaders":"{\"size\":810,\"mobile\":5,\"satellite\":0,\"tor\":0,\"tor_exit_nodes\":0,\"vpn\":8,\"relay\":0,\"proxy\":0,\"hosting\":778,\"service\":8}","uploaders":"{\"size\":83,\"mobile\":0,\"satellite\":0,\"tor\":0,\"tor_exit_nodes\":0,\"vpn\":0,\"relay\":0,\"proxy\":0,\"hosting\":81,\"service\":0}"},"geometry":{"type":"Point","coordinates":[-90.19789,38.62727]}},{"type":"Feature","properties":{"country_code":"GBR","city":"Coventry","geoname_id":"2652221","downloaders":"{\"size\":804,\"mobile\":0,\"satellite\":0,\"tor\":1,\"tor_exit_nodes\":1,\"vpn\":236,\"relay\":0,\"proxy\":0,\"hosting\":733,\"service\":225}","uploaders":"{\"size\":161,\"mobile\":0,\"satellite\":0,\"tor\":0,\"tor_exit_nodes\":0,\"vpn\":46,\"relay\":0,\"proxy\":0,\"hosting\":137,\"service\":42}"},"geometry":{"type":"Point","coordinates":[-1.51217,52.40656]}},{"type":"Feature","properties":{"country_code":"RUS","city":"Korolev","geoname_id":"554233","downloaders":"{\"size\":801,\"mobile\":0,\"satellite\":0,\"tor\":0,\"tor_exit_nodes\":0,\"vpn\":30,\"relay\":0,\"proxy\":0,\"hosting\":33,\"service\":0}","uploaders":"{\"size\":7,\"mobile\":0,\"satellite\":0,\"tor\":0,\"tor_exit_nodes\":0,\"vpn\":0,\"relay\":0,\"proxy\":0,\"hosting\":0,\"service\":0}"},"geometry":{"type":"Point","coordinates":[37.82556,55.91417]}},{"type":"Feature","properties":{"country_code":"RUS","city":"Orël","geoname_id":"515012","downloaders":"{\"size\":796,\"mobile\":0,\"satellite\":0,\"tor\":0,\"tor_exit_nodes\":0,\"vpn\":1,\"relay\":0,\"proxy\":0,\"hosting\":0,\"service\":0}","uploaders":"{\"size\":28,\"mobile\":0,\"satellite\":0,\"tor\":0,\"tor_exit_nodes\":0,\"vpn\":0,\"relay\":0,\"proxy\":0,\"hosting\":0,\"service\":0}"},"geometry":{"type":"Point","coordinates":[36.07805,52.95932]}},{"type":"Feature","properties":{"country_code":"RUS","city":"Kaliningrad","geoname_id":"554234","downloaders":"{\"size\":788,\"mobile\":0,\"satellite\":0,\"tor\":0,\"tor_exit_nodes\":0,\"vpn\":2,\"relay\":0,\"proxy\":0,\"hosting\":3,\"service\":0}","uploaders":"{\"size\":38,\"mobile\":0,\"satellite\":0,\"tor\":0,\"tor_exit_nodes\":0,\"vpn\":0,\"relay\":0,\"proxy\":0,\"hosting\":0,\"service\":0}"},"geometry":{"type":"Point","coordinates":[20.51095,54.70649]}},{"type":"Feature","properties":{"country_code":"CHN","city":"Zhanjiang","geoname_id":"1784990","downloaders":"{\"size\":787,\"mobile\":33,\"satellite\":0,\"tor\":0,\"tor_exit_nodes\":0,\"vpn\":0,\"relay\":0,\"proxy\":0,\"hosting\":0,\"service\":0}","uploaders":"{\"size\":154,\"mobile\":6,\"satellite\":0,\"tor\":0,\"tor_exit_nodes\":0,\"vpn\":0,\"relay\":0,\"proxy\":0,\"hosting\":0,\"service\":0}"},"geometry":{"type":"Point","coordinates":[110.38749,21.23391]}},