{"type":"FeatureCollection","id":"Eyes of Wakanda","swarm_features":223,"features":[{"type":"Feature","properties":{"country_code":"KOR","city":"Seoul","geoname_id":"1835848","downloaders":"{\"size\":1306686,\"mobile\":2459,\"satellite\":0,\"tor\":0,\"tor_exit_nodes\":0,\"vpn\":30406,\"relay\":0,\"proxy\":0,\"hosting\":9216,\"service\":5194}","uploaders":"{\"size\":2460,\"mobile\":95,\"satellite\":0,\"tor\":0,\"tor_exit_nodes\":0,\"vpn\":107,\"relay\":0,\"proxy\":0,\"hosting\":170,\"service\":63}"},"geometry":{"type":"Point","coordinates":[126.9784,37.566]}},{"type":"Feature","properties":{"country_code":"RUS","city":"Moscow","geoname_id":"524901","downloaders":"{\"size\":1012365,\"mobile\":44076,\"satellite\":18,\"tor\":0,\"tor_exit_nodes\":0,\"vpn\":54286,\"relay\":0,\"proxy\":119,\"hosting\":133267,\"service\":14265}","uploaders":"{\"size\":3411,\"mobile\":113,\"satellite\":0,\"tor\":0,\"tor_exit_nodes\":0,\"vpn\":140,\"relay\":0,\"proxy\":0,\"hosting\":1205,\"service\":53}"},"geometry":{"type":"Point","coordinates":[37.61556,55.75222]}},{"type":"Feature","properties":{"country_code":"CHN","city":"Shanghai","geoname_id":"1796236","downloaders":"{\"size\":723555,\"mobile\":10258,\"satellite\":0,\"tor\":0,\"tor_exit_nodes\":0,\"vpn\":24173,\"relay\":0,\"proxy\":0,\"hosting\":89329,\"service\":2}","uploaders":"{\"size\":4074,\"mobile\":25,\"satellite\":0,\"tor\":0,\"tor_exit_nodes\":0,\"vpn\":79,\"relay\":0,\"proxy\":0,\"hosting\":331,\"service\":0}"},"geometry":{"type":"Point","coordinates":[121.45806,31.22222]}},{"type":"Feature","properties":{"country_code":"TUR","city":"Istanbul","geoname_id":"745044","downloaders":"{\"size\":627086,\"mobile\":57233,\"satellite\":0,\"tor\":0,\"tor_exit_nodes\":11,\"vpn\":794,\"relay\":0,\"proxy\":0,\"hosting\":1384,\"service\":508}","uploaders":"{\"size\":478,\"mobile\":58,\"satellite\":0,\"tor\":0,\"tor_exit_nodes\":0,\"vpn\":76,\"relay\":0,\"proxy\":0,\"hosting\":94,\"service\":74}"},"geometry":{"type":"Point","coordinates":[28.94966,41.01384]}},{"type":"Feature","properties":{"country_code":"RUS","city":"Saint Petersburg","geoname_id":"498817","downloaders":"{\"size\":532802,\"mobile\":28448,\"satellite\":1,\"tor\":0,\"tor_exit_nodes\":0,\"vpn\":13957,\"relay\":0,\"proxy\":11,\"hosting\":19960,\"service\":891}","uploaders":"{\"size\":1179,\"mobile\":111,\"satellite\":0,\"tor\":0,\"tor_exit_nodes\":0,\"vpn\":27,\"relay\":0,\"proxy\":0,\"hosting\":57,\"service\":1}"},"geometry":{"type":"Point","coordinates":[30.31413,59.93863]}},{"type":"Feature","properties":{"country_code":"NLD","city":"Amsterdam","geoname_id":"2759794","downloaders":"{\"size\":479436,\"mobile\":445,\"satellite\":30,\"tor\":61,\"tor_exit_nodes\":84,\"vpn\":164814,\"relay\":0,\"proxy\":38,\"hosting\":408490,\"service\":76298}","uploaders":"{\"size\":11277,\"mobile\":48,\"satellite\":3,\"tor\":16,\"tor_exit_nodes\":18,\"vpn\":7640,\"relay\":0,\"proxy\":0,\"hosting\":8552,\"service\":6844}"},"geometry":{"type":"Point","coordinates":[4.88969,52.37403]}},{"type":"Feature","properties":{"country_code":"CHN","city":"Nanjing","geoname_id":"1799962","downloaders":"{\"size\":394120,\"mobile\":0,\"satellite\":0,\"tor\":0,\"tor_exit_nodes\":0,\"vpn\":7618,\"relay\":0,\"proxy\":0,\"hosting\":1656,\"service\":0}","uploaders":"{\"size\":2928,\"mobile\":0,\"satellite\":0,\"tor\":0,\"tor_exit_nodes\":0,\"vpn\":31,\"relay\":0,\"proxy\":0,\"hosting\":74,\"service\":0}"},"geometry":{"type":"Point","coordinates":[118.77778,32.06167]}},{"type":"Feature","properties":{"country_code":"USA","city":"Ashburn","geoname_id":"4744870","downloaders":"{\"size\":337802,\"mobile\":119,\"satellite\":127,\"tor\":0,\"tor_exit_nodes\":0,\"vpn\":12661,\"relay\":0,\"proxy\":0,\"hosting\":335395,\"service\":11783}","uploaders":"{\"size\":99721,\"mobile\":18,\"satellite\":7,\"tor\":0,\"tor_exit_nodes\":0,\"vpn\":1117,\"relay\":0,\"proxy\":0,\"hosting\":99645,\"service\":1065}"},"geometry":{"type":"Point","coordinates":[-77.48749,39.04372]}},{"type":"Feature","properties":{"country_code":"HUN","city":"Budapest","geoname_id":"3054643","downloaders":"{\"size\":294180,\"mobile\":12109,\"satellite\":26,\"tor\":0,\"tor_exit_nodes\":12,\"vpn\":11275,\"relay\":0,\"proxy\":0,\"hosting\":8625,\"service\":2454}","uploaders":"{\"size\":701,\"mobile\":38,\"satellite\":0,\"tor\":0,\"tor_exit_nodes\":0,\"vpn\":113,\"relay\":0,\"proxy\":0,\"hosting\":123,\"service\":94}"},"geometry":{"type":"Point","coordinates":[19.04045,47.49835]}},{"type":"Feature","properties":{"country_code":"POL","city":"Warsaw","geoname_id":"756135","downloaders":"{\"size\":253631,\"mobile\":26200,\"satellite\":117,\"tor\":0,\"tor_exit_nodes\":0,\"vpn\":10095,\"relay\":1,\"proxy\":1,\"hosting\":13358,\"service\":7898}","uploaders":"{\"size\":1912,\"mobile\":293,\"satellite\":3,\"tor\":0,\"tor_exit_nodes\":0,\"vpn\":665,\"relay\":0,\"proxy\":0,\"hosting\":693,\"service\":636}"},"geometry":{"type":"Point","coordinates":[21.01178,52.22977]}},{"type":"Feature","properties":{"country_code":"KOR","city":"Incheon","geoname_id":"1843564","downloaders":"{\"size\":252659,\"mobile\":58,\"satellite\":0,\"tor\":0,\"tor_exit_nodes\":0,\"vpn\":3676,\"relay\":0,\"proxy\":0,\"hosting\":540,\"service\":645}","uploaders":"{\"size\":434,\"mobile\":0,\"satellite\":0,\"tor\":0,\"tor_exit_nodes\":0,\"vpn\":9,\"relay\":0,\"proxy\":0,\"hosting\":31,\"service\":3}"},"geometry":{"type":"Point","coordinates":[126.70515,37.45646]}},{"type":"Feature","properties":{"country_code":"RUS","city":"Yekaterinburg","geoname_id":"1486209","downloaders":"{\"size\":236203,\"mobile\":18572,\"satellite\":0,\"tor\":0,\"tor_exit_nodes\":0,\"vpn\":6332,\"relay\":0,\"proxy\":0,\"hosting\":22696,\"service\":1021}","uploaders":"{\"size\":662,\"mobile\":44,\"satellite\":0,\"tor\":0,\"tor_exit_nodes\":0,\"vpn\":6,\"relay\":0,\"proxy\":0,\"hosting\":33,\"service\":0}"},"geometry":{"type":"Point","coordinates":[60.6122,56.8519]}},{"type":"Feature","properties":{"country_code":"GBR","city":"London","geoname_id":"2643743","downloaders":"{\"size\":231399,\"mobile\":7332,\"satellite\":179,\"tor\":0,\"tor_exit_nodes\":0,\"vpn\":42631,\"relay\":43,\"proxy\":128,\"hosting\":54219,\"service\":38540}","uploaders":"{\"size\":8380,\"mobile\":920,\"satellite\":3,\"tor\":0,\"tor_exit_nodes\":0,\"vpn\":4438,\"relay\":0,\"proxy\":8,\"hosting\":3928,\"service\":4081}"},"geometry":{"type":"Point","coordinates":[-0.12574,51.50853]}},{"type":"Feature","properties":{"country_code":"TUR","city":"Ankara","geoname_id":"323786","downloaders":"{\"size\":223328,\"mobile\":13651,\"satellite\":5,\"tor\":0,\"tor_exit_nodes\":0,\"vpn\":40,\"relay\":0,\"proxy\":0,\"hosting\":26,\"service\":2}","uploaders":"{\"size\":166,\"mobile\":12,\"satellite\":0,\"tor\":0,\"tor_exit_nodes\":0,\"vpn\":2,\"relay\":0,\"proxy\":0,\"hosting\":0,\"service\":0}"},"geometry":{"type":"Point","coordinates":[32.85427,39.91987]}},{"type":"Feature","properties":{"country_code":"CHN","city":"Shenzhen","geoname_id":"1795565","downloaders":"{\"size\":222323,\"mobile\":262,\"satellite\":0,\"tor\":0,\"tor_exit_nodes\":0,\"vpn\":11694,\"relay\":0,\"proxy\":0,\"hosting\":3123,\"service\":0}","uploaders":"{\"size\":1603,\"mobile\":10,\"satellite\":0,\"tor\":0,\"tor_exit_nodes\":0,\"vpn\":64,\"relay\":0,\"proxy\":0,\"hosting\":104,\"service\":0}"},"geometry":{"type":"Point","coordinates":[114.0683,22.54554]}},{"type":"Feature","properties":{"country_code":"RUS","city":"Novosibirsk","geoname_id":"1496747","downloaders":"{\"size\":201128,\"mobile\":18123,\"satellite\":1,\"tor\":0,\"tor_exit_nodes\":0,\"vpn\":907,\"relay\":0,\"proxy\":0,\"hosting\":655,\"service\":232}","uploaders":"{\"size\":596,\"mobile\":173,\"satellite\":0,\"tor\":0,\"tor_exit_nodes\":0,\"vpn\":4,\"relay\":0,\"proxy\":0,\"hosting\":4,\"service\":1}"},"geometry":{"type":"Point","coordinates":[82.94339,55.03442]}},{"type":"Feature","properties":{"country_code":"FRA","city":"Paris","geoname_id":"2988507","downloaders":"{\"size\":190994,\"mobile\":28103,\"satellite\":255,\"tor\":22,\"tor_exit_nodes\":76,\"vpn\":31240,\"relay\":1,\"proxy\":11,\"hosting\":65837,\"service\":23810}","uploaders":"{\"size\":2188,\"mobile\":308,\"satellite\":6,\"tor\":0,\"tor_exit_nodes\":1,\"vpn\":1002,\"relay\":0,\"proxy\":4,\"hosting\":1044,\"service\":944}"},"geometry":{"type":"Point","coordinates":[2.3488,48.85341]}},{"type":"Feature","properties":{"country_code":"CHN","city":"Hangzhou","geoname_id":"1808926","downloaders":"{\"size\":177264,\"mobile\":0,\"satellite\":0,\"tor\":0,\"tor_exit_nodes\":0,\"vpn\":2123,\"relay\":0,\"proxy\":0,\"hosting\":6538,\"service\":0}","uploaders":"{\"size\":279,\"mobile\":0,\"satellite\":0,\"tor\":0,\"tor_exit_nodes\":0,\"vpn\":12,\"relay\":0,\"proxy\":0,\"hosting\":50,\"service\":0}"},"geometry":{"type":"Point","coordinates":[120.16142,30.29365]}},{"type":"Feature","properties":{"country_code":"KOR","city":"Busan","geoname_id":"1838524","downloaders":"{\"size\":154907,\"mobile\":143,\"satellite\":0,\"tor\":0,\"tor_exit_nodes\":0,\"vpn\":1105,\"relay\":0,\"proxy\":0,\"hosting\":0,\"service\":138}","uploaders":"{\"size\":269,\"mobile\":1,\"satellite\":0,\"tor\":0,\"tor_exit_nodes\":0,\"vpn\":1,\"relay\":0,\"proxy\":0,\"hosting\":0,\"service\":0}"},"geometry":{"type":"Point","coordinates":[129.03004,35.10168]}},{"type":"Feature","properties":{"country_code":"RUS","city":"Nizhniy Novgorod","geoname_id":"520555","downloaders":"{\"size\":154027,\"mobile\":33127,\"satellite\":0,\"tor\":0,\"tor_exit_nodes\":0,\"vpn\":1494,\"relay\":0,\"proxy\":0,\"hosting\":68,\"service\":141}","uploaders":"{\"size\":339,\"mobile\":139,\"satellite\":0,\"tor\":0,\"tor_exit_nodes\":0,\"vpn\":2,\"relay\":0,\"proxy\":0,\"hosting\":2,\"service\":2}"},"geometry":{"type":"Point","coordinates":[44.00205,56.32867]}},{"type":"Feature","properties":{"country_code":"BGR","city":"Sofia","geoname_id":"727011","downloaders":"{\"size\":149627,\"mobile\":24353,\"satellite\":228,\"tor\":0,\"tor_exit_nodes\":0,\"vpn\":9918,\"relay\":0,\"proxy\":2,\"hosting\":16966,\"service\":5327}","uploaders":"{\"size\":1069,\"mobile\":237,\"satellite\":14,\"tor\":0,\"tor_exit_nodes\":0,\"vpn\":287,\"relay\":0,\"proxy\":0,\"hosting\":332,\"service\":261}"},"geometry":{"type":"Point","coordinates":[23.32415,42.69751]}},{"type":"Feature","properties":{"country_code":"DEU","city":"Frankfurt am Main","geoname_id":"2925533","downloaders":"{\"size\":143216,\"mobile\":3009,\"satellite\":8,\"tor\":28,\"tor_exit_nodes\":210,\"vpn\":31396,\"relay\":0,\"proxy\":5,\"hosting\":127921,\"service\":28698}","uploaders":"{\"size\":36838,\"mobile\":9,\"satellite\":0,\"tor\":1,\"tor_exit_nodes\":1,\"vpn\":1753,\"relay\":0,\"proxy\":0,\"hosting\":36646,\"service\":1668}"},"geometry":{"type":"Point","coordinates":[8.68417,50.11552]}},{"type":"Feature","properties":{"country_code":"RUS","city":"Krasnodar","geoname_id":"542420","downloaders":"{\"size\":142303,\"mobile\":21033,\"satellite\":0,\"tor\":0,\"tor_exit_nodes\":0,\"vpn\":3649,\"relay\":0,\"proxy\":12,\"hosting\":9394,\"service\":1838}","uploaders":"{\"size\":640,\"mobile\":209,\"satellite\":0,\"tor\":0,\"tor_exit_nodes\":0,\"vpn\":8,\"relay\":0,\"proxy\":0,\"hosting\":13,\"service\":3}"},"geometry":{"type":"Point","coordinates":[38.97603,45.04484]}},{"type":"Feature","properties":{"country_code":"ESP","city":"Madrid","geoname_id":"3117735","downloaders":"{\"size\":141538,\"mobile\":48749,\"satellite\":375,\"tor\":0,\"tor_exit_nodes\":0,\"vpn\":14572,\"relay\":5,\"proxy\":1,\"hosting\":14969,\"service\":12879}","uploaders":"{\"size\":4151,\"mobile\":1260,\"satellite\":60,\"tor\":0,\"tor_exit_nodes\":0,\"vpn\":1461,\"relay\":0,\"proxy\":0,\"hosting\":1591,\"service\":1422}"},"geometry":{"type":"Point","coordinates":[-3.70256,40.4165]}},{"type":"Feature","properties":{"country_code":"CAN","city":"Toronto","geoname_id":"6167865","downloaders":"{\"size\":131754,\"mobile\":4654,\"satellite\":445,\"tor\":142,\"tor_exit_nodes\":716,\"vpn\":65696,\"relay\":24,\"proxy\":12,\"hosting\":68685,\"service\":62306}","uploaders":"{\"size\":6559,\"mobile\":130,\"satellite\":14,\"tor\":11,\"tor_exit_nodes\":54,\"vpn\":5092,\"relay\":15,\"proxy\":0,\"hosting\":5276,\"service\":4965}"},"geometry":{"type":"Point","coordinates":[-79.39864,43.70643]}},{"type":"Feature","properties":{"country_code":"KOR","city":"Daegu","geoname_id":"1835329","downloaders":"{\"size\":130936,\"mobile\":116,\"satellite\":0,\"tor\":0,\"tor_exit_nodes\":0,\"vpn\":1309,\"relay\":0,\"proxy\":0,\"hosting\":2281,\"service\":217}","uploaders":"{\"size\":200,\"mobile\":0,\"satellite\":0,\"tor\":0,\"tor_exit_nodes\":0,\"vpn\":3,\"relay\":0,\"proxy\":0,\"hosting\":7,\"service\":1}"},"geometry":{"type":"Point","coordinates":[128.59111,35.87028]}},{"type":"Feature","properties":{"country_code":"MEX","city":"Mexico City","geoname_id":"3530597","downloaders":"{\"size\":124472,\"mobile\":1228,\"satellite\":1156,\"tor\":0,\"tor_exit_nodes\":0,\"vpn\":445,\"relay\":1,\"proxy\":0,\"hosting\":918,\"service\":301}","uploaders":"{\"size\":999,\"mobile\":47,\"satellite\":80,\"tor\":0,\"tor_exit_nodes\":0,\"vpn\":27,\"relay\":0,\"proxy\":0,\"hosting\":26,\"service\":24}"},"geometry":{"type":"Point","coordinates":[-99.12766,19.42847]}},{"type":"Feature","properties":{"country_code":"TUR","city":"İzmir","geoname_id":"311046","downloaders":"{\"size\":123921,\"mobile\":23293,\"satellite\":0,\"tor\":0,\"tor_exit_nodes\":0,\"vpn\":50,\"relay\":0,\"proxy\":0,\"hosting\":16,\"service\":9}","uploaders":"{\"size\":78,\"mobile\":17,\"satellite\":0,\"tor\":0,\"tor_exit_nodes\":0,\"vpn\":1,\"relay\":0,\"proxy\":0,\"hosting\":1,\"service\":1}"},"geometry":{"type":"Point","coordinates":[27.13838,38.41273]}},{"type":"Feature","properties":{"country_code":"RUS","city":"Samara","geoname_id":"499099","downloaders":"{\"size\":119841,\"mobile\":12925,\"satellite\":0,\"tor\":0,\"tor_exit_nodes\":0,\"vpn\":2605,\"relay\":0,\"proxy\":0,\"hosting\":155,\"service\":1147}","uploaders":"{\"size\":222,\"mobile\":22,\"satellite\":0,\"tor\":0,\"tor_exit_nodes\":0,\"vpn\":11,\"relay\":0,\"proxy\":0,\"hosting\":6,\"service\":7}"},"geometry":{"type":"Point","coordinates":[50.15,53.20007]}},{"type":"Feature","properties":{"country_code":"RUS","city":"Voronezh","geoname_id":"472045","downloaders":"{\"size\":118705,\"mobile\":1385,\"satellite\":2,\"tor\":0,\"tor_exit_nodes\":0,\"vpn\":1747,\"relay\":0,\"proxy\":1,\"hosting\":2100,\"service\":23}","uploaders":"{\"size\":288,\"mobile\":10,\"satellite\":0,\"tor\":0,\"tor_exit_nodes\":0,\"vpn\":33,\"relay\":0,\"proxy\":0,\"hosting\":4,\"service\":0}"},"geometry":{"type":"Point","coordinates":[39.1843,51.67204]}},{"type":"Feature","properties":{"country_code":"USA","city":"New York City","geoname_id":"5128581","downloaders":"{\"size\":118225,\"mobile\":1648,\"satellite\":65,\"tor\":0,\"tor_exit_nodes\":0,\"vpn\":49663,\"relay\":34,\"proxy\":0,\"hosting\":55162,\"service\":46722}","uploaders":"{\"size\":5974,\"mobile\":117,\"satellite\":0,\"tor\":0,\"tor_exit_nodes\":0,\"vpn\":5090,\"relay\":9,\"proxy\":0,\"hosting\":5042,\"service\":4840}"},"geometry":{"type":"Point","coordinates":[-74.00597,40.71427]}},{"type":"Feature","properties":{"country_code":"CAN","city":"Montréal","geoname_id":"6077243","downloaders":"{\"size\":114210,\"mobile\":4929,\"satellite\":24,\"tor\":0,\"tor_exit_nodes\":115,\"vpn\":41111,\"relay\":3,\"proxy\":0,\"hosting\":53445,\"service\":39480}","uploaders":"{\"size\":4864,\"mobile\":51,\"satellite\":0,\"tor\":0,\"tor_exit_nodes\":19,\"vpn\":3680,\"relay\":0,\"proxy\":0,\"hosting\":3520,\"service\":3526}"},"geometry":{"type":"Point","coordinates":[-73.58781,45.50884]}},{"type":"Feature","properties":{"country_code":"BRA","city":"São Paulo","geoname_id":"3448439","downloaders":"{\"size\":110533,\"mobile\":15375,\"satellite\":1081,\"tor\":0,\"tor_exit_nodes\":0,\"vpn\":3591,\"relay\":0,\"proxy\":0,\"hosting\":10180,\"service\":2898}","uploaders":"{\"size\":2394,\"mobile\":469,\"satellite\":66,\"tor\":0,\"tor_exit_nodes\":0,\"vpn\":421,\"relay\":0,\"proxy\":0,\"hosting\":653,\"service\":362}"},"geometry":{"type":"Point","coordinates":[-46.63611,-23.5475]}},{"type":"Feature","properties":{"country_code":"NLD","city":"Lelystad","geoname_id":"2751738","downloaders":"{\"size\":108161,\"mobile\":77,\"satellite\":0,\"tor\":154,\"tor_exit_nodes\":39,\"vpn\":17103,\"relay\":0,\"proxy\":0,\"hosting\":104258,\"service\":5112}","uploaders":"{\"size\":1061,\"mobile\":8,\"satellite\":0,\"tor\":9,\"tor_exit_nodes\":1,\"vpn\":263,\"relay\":0,\"proxy\":0,\"hosting\":1007,\"service\":209}"},"geometry":{"type":"Point","coordinates":[5.475,52.50833]}},{"type":"Feature","properties":{"country_code":"BEL","city":"Brussels","geoname_id":"2800866","downloaders":"{\"size\":107794,\"mobile\":1189,\"satellite\":44,\"tor\":0,\"tor_exit_nodes\":24,\"vpn\":6365,\"relay\":0,\"proxy\":0,\"hosting\":4651,\"service\":5872}","uploaders":"{\"size\":1331,\"mobile\":122,\"satellite\":2,\"tor\":0,\"tor_exit_nodes\":2,\"vpn\":425,\"relay\":0,\"proxy\":0,\"hosting\":289,\"service\":419}"},"geometry":{"type":"Point","coordinates":[4.34878,50.85045]}},{"type":"Feature","properties":{"country_code":"RUS","city":"Perm","geoname_id":"511196","downloaders":"{\"size\":106343,\"mobile\":5341,\"satellite\":0,\"tor\":0,\"tor_exit_nodes\":0,\"vpn\":1240,\"relay\":0,\"proxy\":3,\"hosting\":13,\"service\":15}","uploaders":"{\"size\":204,\"mobile\":6,\"satellite\":0,\"tor\":0,\"tor_exit_nodes\":0,\"vpn\":1,\"relay\":0,\"proxy\":0,\"hosting\":0,\"service\":0}"},"geometry":{"type":"Point","coordinates":[56.25017,58.01046]}},{"type":"Feature","properties":{"country_code":"RUS","city":"Rostov-na-Donu","geoname_id":"501175","downloaders":"{\"size\":102252,\"mobile\":4954,\"satellite\":0,\"tor\":0,\"tor_exit_nodes\":0,\"vpn\":2889,\"relay\":0,\"proxy\":0,\"hosting\":38,\"service\":746}","uploaders":"{\"size\":243,\"mobile\":38,\"satellite\":0,\"tor\":0,\"tor_exit_nodes\":0,\"vpn\":7,\"relay\":0,\"proxy\":0,\"hosting\":0,\"service\":4}"},"geometry":{"type":"Point","coordinates":[39.72328,47.23135]}},{"type":"Feature","properties":{"country_code":"KOR","city":"Suwon","geoname_id":"1835553","downloaders":"{\"size\":100568,\"mobile\":56,\"satellite\":0,\"tor\":0,\"tor_exit_nodes\":0,\"vpn\":1836,\"relay\":0,\"proxy\":0,\"hosting\":0,\"service\":176}","uploaders":"{\"size\":164,\"mobile\":0,\"satellite\":0,\"tor\":0,\"tor_exit_nodes\":0,\"vpn\":12,\"relay\":0,\"proxy\":0,\"hosting\":0,\"service\":1}"},"geometry":{"type":"Point","coordinates":[127.00889,37.29111]}},{"type":"Feature","properties":{"country_code":"RUS","city":"Chelyabinsk","geoname_id":"1508291","downloaders":"{\"size\":100537,\"mobile\":7698,\"satellite\":0,\"tor\":0,\"tor_exit_nodes\":0,\"vpn\":492,\"relay\":0,\"proxy\":0,\"hosting\":55,\"service\":135}","uploaders":"{\"size\":211,\"mobile\":38,\"satellite\":0,\"tor\":0,\"tor_exit_nodes\":0,\"vpn\":3,\"relay\":0,\"proxy\":0,\"hosting\":2,\"service\":2}"},"geometry":{"type":"Point","coordinates":[61.42915,55.15402]}},{"type":"Feature","properties":{"country_code":"RUS","city":"Krasnoyarsk","geoname_id":"1502026","downloaders":"{\"size\":98481,\"mobile\":8187,\"satellite\":5,\"tor\":0,\"tor_exit_nodes\":0,\"vpn\":1062,\"relay\":0,\"proxy\":2,\"hosting\":1042,\"service\":907}","uploaders":"{\"size\":330,\"mobile\":26,\"satellite\":0,\"tor\":0,\"tor_exit_nodes\":0,\"vpn\":4,\"relay\":0,\"proxy\":0,\"hosting\":41,\"service\":3}"},"geometry":{"type":"Point","coordinates":[92.90765,56.02668]}},{"type":"Feature","properties":{"country_code":"TUR","city":"Bursa","geoname_id":"750269","downloaders":"{\"size\":95982,\"mobile\":11336,\"satellite\":0,\"tor\":0,\"tor_exit_nodes\":0,\"vpn\":21,\"relay\":0,\"proxy\":0,\"hosting\":602,\"service\":0}","uploaders":"{\"size\":29,\"mobile\":4,\"satellite\":0,\"tor\":0,\"tor_exit_nodes\":0,\"vpn\":0,\"relay\":0,\"proxy\":0,\"hosting\":4,\"service\":0}"},"geometry":{"type":"Point","coordinates":[29.06013,40.19559]}},{"type":"Feature","properties":{"country_code":"RUS","city":"Tyumen","geoname_id":"1488754","downloaders":"{\"size\":95508,\"mobile\":14159,\"satellite\":0,\"tor\":0,\"tor_exit_nodes\":0,\"vpn\":744,\"relay\":0,\"proxy\":0,\"hosting\":5,\"service\":21}","uploaders":"{\"size\":197,\"mobile\":29,\"satellite\":0,\"tor\":0,\"tor_exit_nodes\":0,\"vpn\":0,\"relay\":0,\"proxy\":0,\"hosting\":0,\"service\":0}"},"geometry":{"type":"Point","coordinates":[65.52722,57.15222]}},{"type":"Feature","properties":{"country_code":"RUS","city":"Ufa","geoname_id":"479561","downloaders":"{\"size\":90609,\"mobile\":2896,\"satellite\":0,\"tor\":0,\"tor_exit_nodes\":0,\"vpn\":877,\"relay\":0,\"proxy\":0,\"hosting\":1,\"service\":96}","uploaders":"{\"size\":211,\"mobile\":24,\"satellite\":0,\"tor\":0,\"tor_exit_nodes\":0,\"vpn\":3,\"relay\":0,\"proxy\":0,\"hosting\":0,\"service\":1}"},"geometry":{"type":"Point","coordinates":[55.96779,54.74306]}},{"type":"Feature","properties":{"country_code":"FIN","city":"Helsinki","geoname_id":"658225","downloaders":"{\"size\":90555,\"mobile\":1178,\"satellite\":33,\"tor\":0,\"tor_exit_nodes\":0,\"vpn\":12800,\"relay\":0,\"proxy\":0,\"hosting\":76508,\"service\":7205}","uploaders":"{\"size\":562,\"mobile\":32,\"satellite\":0,\"tor\":0,\"tor_exit_nodes\":0,\"vpn\":272,\"relay\":0,\"proxy\":0,\"hosting\":468,\"service\":229}"},"geometry":{"type":"Point","coordinates":[24.93545,60.16952]}},{"type":"Feature","properties":{"country_code":"HKG","city":"Hong Kong","geoname_id":"1819729","downloaders":"{\"size\":88533,\"mobile\":788,\"satellite\":0,\"tor\":0,\"tor_exit_nodes\":0,\"vpn\":8156,\"relay\":0,\"proxy\":9,\"hosting\":17023,\"service\":4040}","uploaders":"{\"size\":1368,\"mobile\":15,\"satellite\":0,\"tor\":0,\"tor_exit_nodes\":0,\"vpn\":317,\"relay\":0,\"proxy\":0,\"hosting\":754,\"service\":290}"},"geometry":{"type":"Point","coordinates":[114.17469,22.27832]}},{"type":"Feature","properties":{"country_code":"CHN","city":"Ningbo","geoname_id":"1799397","downloaders":"{\"size\":87491,\"mobile\":0,\"satellite\":0,\"tor\":0,\"tor_exit_nodes\":0,\"vpn\":1437,\"relay\":0,\"proxy\":0,\"hosting\":5381,\"service\":0}","uploaders":"{\"size\":558,\"mobile\":0,\"satellite\":0,\"tor\":0,\"tor_exit_nodes\":0,\"vpn\":4,\"relay\":0,\"proxy\":0,\"hosting\":6,\"service\":0}"},"geometry":{"type":"Point","coordinates":[121.54945,29.87819]}},{"type":"Feature","properties":{"country_code":"RUS","city":"Barnaul","geoname_id":"1510853","downloaders":"{\"size\":87118,\"mobile\":166,\"satellite\":0,\"tor\":0,\"tor_exit_nodes\":0,\"vpn\":367,\"relay\":0,\"proxy\":0,\"hosting\":0,\"service\":189}","uploaders":"{\"size\":126,\"mobile\":2,\"satellite\":0,\"tor\":0,\"tor_exit_nodes\":0,\"vpn\":1,\"relay\":0,\"proxy\":0,\"hosting\":0,\"service\":0}"},"geometry":{"type":"Point","coordinates":[83.7456,53.3598]}},{"type":"Feature","properties":{"country_code":"RUS","city":"Tomsk","geoname_id":"1489425","downloaders":"{\"size\":86938,\"mobile\":65,\"satellite\":0,\"tor\":0,\"tor_exit_nodes\":0,\"vpn\":210,\"relay\":0,\"proxy\":0,\"hosting\":373,\"service\":27}","uploaders":"{\"size\":207,\"mobile\":0,\"satellite\":0,\"tor\":0,\"tor_exit_nodes\":0,\"vpn\":1,\"relay\":0,\"proxy\":0,\"hosting\":1,\"service\":0}"},"geometry":{"type":"Point","coordinates":[84.98204,56.50032]}},{"type":"Feature","properties":{"country_code":"RUS","city":"Omsk","geoname_id":"1496153","downloaders":"{\"size\":85942,\"mobile\":365,\"satellite\":0,\"tor\":0,\"tor_exit_nodes\":0,\"vpn\":156,\"relay\":0,\"proxy\":1,\"hosting\":22,\"service\":63}","uploaders":"{\"size\":156,\"mobile\":21,\"satellite\":0,\"tor\":0,\"tor_exit_nodes\":0,\"vpn\":0,\"relay\":0,\"proxy\":0,\"hosting\":0,\"service\":0}"},"geometry":{"type":"Point","coordinates":[73.36859,54.99244]}},{"type":"Feature","properties":{"country_code":"BLR","city":"Minsk","geoname_id":"625144","downloaders":"{\"size\":85001,\"mobile\":1263,\"satellite\":0,\"tor\":0,\"tor_exit_nodes\":0,\"vpn\":1892,\"relay\":0,\"proxy\":0,\"hosting\":1261,\"service\":165}","uploaders":"{\"size\":233,\"mobile\":2,\"satellite\":0,\"tor\":0,\"tor_exit_nodes\":0,\"vpn\":7,\"relay\":0,\"proxy\":0,\"hosting\":21,\"service\":1}"},"geometry":{"type":"Point","coordinates":[27.56653,53.90019]}},{"type":"Feature","properties":{"country_code":"KOR","city":"Daejeon","geoname_id":"1835235","downloaders":"{\"size\":84587,\"mobile\":137,\"satellite\":0,\"tor\":0,\"tor_exit_nodes\":0,\"vpn\":1295,\"relay\":0,\"proxy\":0,\"hosting\":0,\"service\":181}","uploaders":"{\"size\":142,\"mobile\":2,\"satellite\":0,\"tor\":0,\"tor_exit_nodes\":0,\"vpn\":5,\"relay\":0,\"proxy\":0,\"hosting\":0,\"service\":5}"},"geometry":{"type":"Point","coordinates":[127.38493,36.34913]}},{"type":"Feature","properties":{"country_code":"RUS","city":"Saratov","geoname_id":"498677","downloaders":"{\"size\":81669,\"mobile\":2092,\"satellite\":0,\"tor\":0,\"tor_exit_nodes\":0,\"vpn\":803,\"relay\":0,\"proxy\":0,\"hosting\":0,\"service\":62}","uploaders":"{\"size\":202,\"mobile\":4,\"satellite\":0,\"tor\":0,\"tor_exit_nodes\":0,\"vpn\":1,\"relay\":0,\"proxy\":0,\"hosting\":0,\"service\":0}"},"geometry":{"type":"Point","coordinates":[46.00861,51.54056]}},{"type":"Feature","properties":{"country_code":"KOR","city":"Hwaseong-si","geoname_id":"1843847","downloaders":"{\"size\":81592,\"mobile\":125,\"satellite\":0,\"tor\":0,\"tor_exit_nodes\":0,\"vpn\":1228,\"relay\":0,\"proxy\":0,\"hosting\":0,\"service\":183}","uploaders":"{\"size\":147,\"mobile\":0,\"satellite\":0,\"tor\":0,\"tor_exit_nodes\":0,\"vpn\":2,\"relay\":0,\"proxy\":0,\"hosting\":0,\"service\":1}"},"geometry":{"type":"Point","coordinates":[126.8169,37.20682]}},{"type":"Feature","properties":{"country_code":"KOR","city":"Goyang-si","geoname_id":"1842485","downloaders":"{\"size\":81157,\"mobile\":13,\"satellite\":0,\"tor\":0,\"tor_exit_nodes\":0,\"vpn\":1498,\"relay\":0,\"proxy\":0,\"hosting\":0,\"service\":80}","uploaders":"{\"size\":126,\"mobile\":0,\"satellite\":0,\"tor\":0,\"tor_exit_nodes\":0,\"vpn\":4,\"relay\":0,\"proxy\":0,\"hosting\":0,\"service\":0}"},"geometry":{"type":"Point","coordinates":[126.835,37.65639]}},{"type":"Feature","properties":{"country_code":"KOR","city":"Seongnam-si","geoname_id":"1897000","downloaders":"{\"size\":79801,\"mobile\":114,\"satellite\":0,\"tor\":0,\"tor_exit_nodes\":0,\"vpn\":1258,\"relay\":0,\"proxy\":0,\"hosting\":0,\"service\":275}","uploaders":"{\"size\":159,\"mobile\":1,\"satellite\":0,\"tor\":0,\"tor_exit_nodes\":0,\"vpn\":2,\"relay\":0,\"proxy\":0,\"hosting\":0,\"service\":1}"},"geometry":{"type":"Point","coordinates":[127.13778,37.43861]}},{"type":"Feature","properties":{"country_code":"JPN","city":"Tokyo","geoname_id":"1850147","downloaders":"{\"size\":79168,\"mobile\":5430,\"satellite\":40,\"tor\":0,\"tor_exit_nodes\":0,\"vpn\":14695,\"relay\":0,\"proxy\":7,\"hosting\":22158,\"service\":12537}","uploaders":"{\"size\":835,\"mobile\":25,\"satellite\":1,\"tor\":0,\"tor_exit_nodes\":0,\"vpn\":499,\"relay\":0,\"proxy\":0,\"hosting\":663,\"service\":493}"},"geometry":{"type":"Point","coordinates":[139.69171,35.6895]}},{"type":"Feature","properties":{"country_code":"UKR","city":"Kyiv","geoname_id":"703448","downloaders":"{\"size\":78934,\"mobile\":634,\"satellite\":932,\"tor\":0,\"tor_exit_nodes\":0,\"vpn\":4021,\"relay\":0,\"proxy\":0,\"hosting\":14077,\"service\":1892}","uploaders":"{\"size\":727,\"mobile\":27,\"satellite\":20,\"tor\":0,\"tor_exit_nodes\":0,\"vpn\":69,\"relay\":0,\"proxy\":0,\"hosting\":335,\"service\":55}"},"geometry":{"type":"Point","coordinates":[30.5238,50.45466]}},{"type":"Feature","properties":{"country_code":"CHN","city":"Beijing","geoname_id":"1816670","downloaders":"{\"size\":78866,\"mobile\":0,\"satellite\":0,\"tor\":0,\"tor_exit_nodes\":0,\"vpn\":2033,\"relay\":0,\"proxy\":0,\"hosting\":10288,\"service\":1}","uploaders":"{\"size\":823,\"mobile\":0,\"satellite\":0,\"tor\":0,\"tor_exit_nodes\":0,\"vpn\":11,\"relay\":0,\"proxy\":0,\"hosting\":350,\"service\":0}"},"geometry":{"type":"Point","coordinates":[116.39723,39.9075]}},{"type":"Feature","properties":{"country_code":"AUS","city":"Sydney","geoname_id":"2147714","downloaders":"{\"size\":78598,\"mobile\":3906,\"satellite\":446,\"tor\":0,\"tor_exit_nodes\":0,\"vpn\":17831,\"relay\":34,\"proxy\":16,\"hosting\":22073,\"service\":15379}","uploaders":"{\"size\":4175,\"mobile\":335,\"satellite\":31,\"tor\":0,\"tor_exit_nodes\":0,\"vpn\":1385,\"relay\":9,\"proxy\":0,\"hosting\":1541,\"service\":1283}"},"geometry":{"type":"Point","coordinates":[151.20732,-33.86785]}},{"type":"Feature","properties":{"country_code":"KOR","city":"Gwangju","geoname_id":"1841811","downloaders":"{\"size\":75589,\"mobile\":18,\"satellite\":0,\"tor\":0,\"tor_exit_nodes\":0,\"vpn\":406,\"relay\":0,\"proxy\":0,\"hosting\":0,\"service\":83}","uploaders":"{\"size\":109,\"mobile\":0,\"satellite\":0,\"tor\":0,\"tor_exit_nodes\":0,\"vpn\":2,\"relay\":0,\"proxy\":0,\"hosting\":0,\"service\":1}"},"geometry":{"type":"Point","coordinates":[126.91556,35.15472]}},{"type":"Feature","properties":{"country_code":"RUS","city":"Kemerovo","geoname_id":"1503901","downloaders":"{\"size\":74001,\"mobile\":81,\"satellite\":0,\"tor\":0,\"tor_exit_nodes\":0,\"vpn\":384,\"relay\":0,\"proxy\":0,\"hosting\":174,\"service\":20}","uploaders":"{\"size\":168,\"mobile\":1,\"satellite\":0,\"tor\":0,\"tor_exit_nodes\":0,\"vpn\":1,\"relay\":0,\"proxy\":0,\"hosting\":0,\"service\":1}"},"geometry":{"type":"Point","coordinates":[86.08333,55.33333]}},{"type":"Feature","properties":{"country_code":"AUS","city":"Melbourne","geoname_id":"2158177","downloaders":"{\"size\":72161,\"mobile\":3005,\"satellite\":278,\"tor\":0,\"tor_exit_nodes\":0,\"vpn\":13736,\"relay\":0,\"proxy\":0,\"hosting\":15274,\"service\":11368}","uploaders":"{\"size\":4063,\"mobile\":345,\"satellite\":6,\"tor\":0,\"tor_exit_nodes\":0,\"vpn\":1761,\"relay\":0,\"proxy\":0,\"hosting\":1824,\"service\":1631}"},"geometry":{"type":"Point","coordinates":[144.96332,-37.814]}},{"type":"Feature","properties":{"country_code":"USA","city":"Los Angeles","geoname_id":"5368361","downloaders":"{\"size\":69803,\"mobile\":1091,\"satellite\":29,\"tor\":0,\"tor_exit_nodes\":0,\"vpn\":34568,\"relay\":1,\"proxy\":2,\"hosting\":52461,\"service\":30210}","uploaders":"{\"size\":5137,\"mobile\":102,\"satellite\":0,\"tor\":0,\"tor_exit_nodes\":0,\"vpn\":3444,\"relay\":0,\"proxy\":0,\"hosting\":4667,\"service\":3191}"},"geometry":{"type":"Point","coordinates":[-118.24368,34.05223]}},{"type":"Feature","properties":{"country_code":"SWE","city":"Stockholm","geoname_id":"2673730","downloaders":"{\"size\":69580,\"mobile\":2898,\"satellite\":37,\"tor\":78,\"tor_exit_nodes\":15,\"vpn\":31746,\"relay\":2,\"proxy\":1,\"hosting\":25053,\"service\":28451}","uploaders":"{\"size\":2100,\"mobile\":126,\"satellite\":0,\"tor\":26,\"tor_exit_nodes\":6,\"vpn\":1691,\"relay\":0,\"proxy\":0,\"hosting\":1342,\"service\":1618}"},"geometry":{"type":"Point","coordinates":[18.06871,59.32938]}},{"type":"Feature","properties":{"country_code":"CHE","city":"Zürich","geoname_id":"2657896","downloaders":"{\"size\":69059,\"mobile\":5092,\"satellite\":8,\"tor\":98,\"tor_exit_nodes\":4,\"vpn\":42661,\"relay\":0,\"proxy\":10,\"hosting\":37013,\"service\":40936}","uploaders":"{\"size\":4571,\"mobile\":171,\"satellite\":0,\"tor\":18,\"tor_exit_nodes\":2,\"vpn\":3895,\"relay\":0,\"proxy\":0,\"hosting\":3244,\"service\":3803}"},"geometry":{"type":"Point","coordinates":[8.55,47.36667]}},{"type":"Feature","properties":{"country_code":"USA","city":"Boardman","geoname_id":"5714964","downloaders":"{\"size\":67418,\"mobile\":3,\"satellite\":0,\"tor\":0,\"tor_exit_nodes\":0,\"vpn\":11,\"relay\":1,\"proxy\":0,\"hosting\":67408,\"service\":1}","uploaders":"{\"size\":46303,\"mobile\":0,\"satellite\":0,\"tor\":0,\"tor_exit_nodes\":0,\"vpn\":0,\"relay\":0,\"proxy\":0,\"hosting\":46303,\"service\":0}"},"geometry":{"type":"Point","coordinates":[-119.70058,45.83986]}},{"type":"Feature","properties":{"country_code":"RUS","city":"Tula","geoname_id":"480562","downloaders":"{\"size\":67325,\"mobile\":13403,\"satellite\":0,\"tor\":0,\"tor_exit_nodes\":0,\"vpn\":672,\"relay\":0,\"proxy\":0,\"hosting\":4322,\"service\":14}","uploaders":"{\"size\":95,\"mobile\":22,\"satellite\":0,\"tor\":0,\"tor_exit_nodes\":0,\"vpn\":2,\"relay\":0,\"proxy\":0,\"hosting\":5,\"service\":0}"},"geometry":{"type":"Point","coordinates":[37.61822,54.19609]}},{"type":"Feature","properties":{"country_code":"CHN","city":"Jiaxing","geoname_id":"1805953","downloaders":"{\"size\":65075,\"mobile\":0,\"satellite\":0,\"tor\":0,\"tor_exit_nodes\":0,\"vpn\":3853,\"relay\":0,\"proxy\":0,\"hosting\":180,\"service\":0}","uploaders":"{\"size\":102,\"mobile\":0,\"satellite\":0,\"tor\":0,\"tor_exit_nodes\":0,\"vpn\":11,\"relay\":0,\"proxy\":0,\"hosting\":0,\"service\":0}"},"geometry":{"type":"Point","coordinates":[120.75,30.7522]}},{"type":"Feature","properties":{"country_code":"RUS","city":"Lipetsk","geoname_id":"535121","downloaders":"{\"size\":64191,\"mobile\":7788,\"satellite\":0,\"tor\":0,\"tor_exit_nodes\":0,\"vpn\":463,\"relay\":0,\"proxy\":0,\"hosting\":0,\"service\":40}","uploaders":"{\"size\":130,\"mobile\":24,\"satellite\":0,\"tor\":0,\"tor_exit_nodes\":0,\"vpn\":0,\"relay\":0,\"proxy\":0,\"hosting\":0,\"service\":0}"},"geometry":{"type":"Point","coordinates":[39.57076,52.60311]}},{"type":"Feature","properties":{"country_code":"CHN","city":"Zhengzhou","geoname_id":"1784658","downloaders":"{\"size\":63815,\"mobile\":0,\"satellite\":0,\"tor\":0,\"tor_exit_nodes\":0,\"vpn\":882,\"relay\":0,\"proxy\":0,\"hosting\":44,\"service\":1}","uploaders":"{\"size\":294,\"mobile\":0,\"satellite\":0,\"tor\":0,\"tor_exit_nodes\":0,\"vpn\":3,\"relay\":0,\"proxy\":0,\"hosting\":0,\"service\":0}"},"geometry":{"type":"Point","coordinates":[113.64861,34.75778]}},{"type":"Feature","properties":{"country_code":"ITA","city":"Milan","geoname_id":"3173435","downloaders":"{\"size\":62844,\"mobile\":9398,\"satellite\":399,\"tor\":0,\"tor_exit_nodes\":0,\"vpn\":8221,\"relay\":5,\"proxy\":1,\"hosting\":8682,\"service\":7318}","uploaders":"{\"size\":1000,\"mobile\":106,\"satellite\":38,\"tor\":0,\"tor_exit_nodes\":0,\"vpn\":368,\"relay\":0,\"proxy\":0,\"hosting\":413,\"service\":364}"},"geometry":{"type":"Point","coordinates":[9.18951,45.46427]}},{"type":"Feature","properties":{"country_code":"RUS","city":"Volgograd","geoname_id":"472757","downloaders":"{\"size\":62596,\"mobile\":5718,\"satellite\":0,\"tor\":0,\"tor_exit_nodes\":0,\"vpn\":777,\"relay\":0,\"proxy\":0,\"hosting\":0,\"service\":107}","uploaders":"{\"size\":105,\"mobile\":12,\"satellite\":0,\"tor\":0,\"tor_exit_nodes\":0,\"vpn\":1,\"relay\":0,\"proxy\":0,\"hosting\":0,\"service\":0}"},"geometry":{"type":"Point","coordinates":[44.50183,48.71939]}},{"type":"Feature","properties":{"country_code":"IRL","city":"Dublin","geoname_id":"2964574","downloaders":"{\"size\":62228,\"mobile\":3119,\"satellite\":24,\"tor\":0,\"tor_exit_nodes\":0,\"vpn\":6137,\"relay\":7,\"proxy\":0,\"hosting\":37333,\"service\":5470}","uploaders":"{\"size\":25117,\"mobile\":300,\"satellite\":0,\"tor\":0,\"tor_exit_nodes\":0,\"vpn\":417,\"relay\":0,\"proxy\":0,\"hosting\":24285,\"service\":392}"},"geometry":{"type":"Point","coordinates":[-6.24889,53.33306]}},{"type":"Feature","properties":{"country_code":"KOR","city":"Ansan-si","geoname_id":"1846918","downloaders":"{\"size\":62087,\"mobile\":41,\"satellite\":0,\"tor\":0,\"tor_exit_nodes\":0,\"vpn\":622,\"relay\":0,\"proxy\":0,\"hosting\":0,\"service\":109}","uploaders":"{\"size\":101,\"mobile\":0,\"satellite\":0,\"tor\":0,\"tor_exit_nodes\":0,\"vpn\":3,\"relay\":0,\"proxy\":0,\"hosting\":0,\"service\":1}"},"geometry":{"type":"Point","coordinates":[126.82194,37.32361]}},{"type":"Feature","properties":{"country_code":"SVN","city":"Ljubljana","geoname_id":"3196359","downloaders":"{\"size\":61841,\"mobile\":1125,\"satellite\":12,\"tor\":0,\"tor_exit_nodes\":0,\"vpn\":2618,\"relay\":0,\"proxy\":0,\"hosting\":1399,\"service\":1298}","uploaders":"{\"size\":645,\"mobile\":143,\"satellite\":0,\"tor\":0,\"tor_exit_nodes\":0,\"vpn\":122,\"relay\":0,\"proxy\":0,\"hosting\":120,\"service\":119}"},"geometry":{"type":"Point","coordinates":[14.50513,46.05108]}},{"type":"Feature","properties":{"country_code":"LVA","city":"Riga","geoname_id":"456172","downloaders":"{\"size\":60735,\"mobile\":1888,\"satellite\":30,\"tor\":0,\"tor_exit_nodes\":0,\"vpn\":3076,\"relay\":0,\"proxy\":0,\"hosting\":5927,\"service\":2136}","uploaders":"{\"size\":496,\"mobile\":41,\"satellite\":0,\"tor\":0,\"tor_exit_nodes\":0,\"vpn\":140,\"relay\":0,\"proxy\":0,\"hosting\":187,\"service\":136}"},"geometry":{"type":"Point","coordinates":[24.10589,56.946]}},{"type":"Feature","properties":{"country_code":"KOR","city":"Cheongju-si","geoname_id":"1845604","downloaders":"{\"size\":60440,\"mobile\":10,\"satellite\":0,\"tor\":0,\"tor_exit_nodes\":0,\"vpn\":574,\"relay\":0,\"proxy\":0,\"hosting\":0,\"service\":33}","uploaders":"{\"size\":98,\"mobile\":0,\"satellite\":0,\"tor\":0,\"tor_exit_nodes\":0,\"vpn\":0,\"relay\":0,\"proxy\":0,\"hosting\":0,\"service\":0}"},"geometry":{"type":"Point","coordinates":[127.48972,36.63722]}},{"type":"Feature","properties":{"country_code":"USA","city":"Chicago","geoname_id":"4887398","downloaders":"{\"size\":60359,\"mobile\":3440,\"satellite\":377,\"tor\":0,\"tor_exit_nodes\":0,\"vpn\":34121,\"relay\":11,\"proxy\":0,\"hosting\":33444,\"service\":29694}","uploaders":"{\"size\":2912,\"mobile\":202,\"satellite\":2,\"tor\":0,\"tor_exit_nodes\":0,\"vpn\":2444,\"relay\":0,\"proxy\":0,\"hosting\":2233,\"service\":2168}"},"geometry":{"type":"Point","coordinates":[-87.65005,41.85003]}},{"type":"Feature","properties":{"country_code":"RUS","city":"Kazan","geoname_id":"551487","downloaders":"{\"size\":59987,\"mobile\":10432,\"satellite\":0,\"tor\":0,\"tor_exit_nodes\":0,\"vpn\":791,\"relay\":0,\"proxy\":0,\"hosting\":248,\"service\":6}","uploaders":"{\"size\":144,\"mobile\":35,\"satellite\":0,\"tor\":0,\"tor_exit_nodes\":0,\"vpn\":2,\"relay\":0,\"proxy\":0,\"hosting\":1,\"service\":0}"},"geometry":{"type":"Point","coordinates":[49.12214,55.78874]}},{"type":"Feature","properties":{"country_code":"POL","city":"Poznań","geoname_id":"3088171","downloaders":"{\"size\":57997,\"mobile\":2071,\"satellite\":0,\"tor\":0,\"tor_exit_nodes\":0,\"vpn\":531,\"relay\":0,\"proxy\":0,\"hosting\":103,\"service\":0}","uploaders":"{\"size\":300,\"mobile\":184,\"satellite\":0,\"tor\":0,\"tor_exit_nodes\":0,\"vpn\":2,\"relay\":0,\"proxy\":0,\"hosting\":2,\"service\":0}"},"geometry":{"type":"Point","coordinates":[16.92993,52.40692]}},{"type":"Feature","properties":{"country_code":"RUS","city":"Irkutsk","geoname_id":"2023469","downloaders":"{\"size\":57259,\"mobile\":9863,\"satellite\":0,\"tor\":0,\"tor_exit_nodes\":0,\"vpn\":138,\"relay\":0,\"proxy\":0,\"hosting\":30,\"service\":27}","uploaders":"{\"size\":155,\"mobile\":50,\"satellite\":0,\"tor\":0,\"tor_exit_nodes\":0,\"vpn\":0,\"relay\":0,\"proxy\":0,\"hosting\":2,\"service\":0}"},"geometry":{"type":"Point","coordinates":[104.29585,52.29795]}},{"type":"Feature","properties":{"country_code":"RUS","city":"Khimki","geoname_id":"550280","downloaders":"{\"size\":56749,\"mobile\":33,\"satellite\":6,\"tor\":0,\"tor_exit_nodes\":0,\"vpn\":4129,\"relay\":0,\"proxy\":0,\"hosting\":11127,\"service\":1185}","uploaders":"{\"size\":140,\"mobile\":0,\"satellite\":0,\"tor\":0,\"tor_exit_nodes\":0,\"vpn\":4,\"relay\":0,\"proxy\":0,\"hosting\":11,\"service\":0}"},"geometry":{"type":"Point","coordinates":[37.42848,55.9001]}},{"type":"Feature","properties":{"country_code":"KOR","city":"Haegok","geoname_id":"6398843","downloaders":"{\"size\":56071,\"mobile\":76,\"satellite\":0,\"tor\":0,\"tor_exit_nodes\":0,\"vpn\":871,\"relay\":0,\"proxy\":0,\"hosting\":2,\"service\":35}","uploaders":"{\"size\":91,\"mobile\":0,\"satellite\":0,\"tor\":0,\"tor_exit_nodes\":0,\"vpn\":1,\"relay\":0,\"proxy\":0,\"hosting\":0,\"service\":0}"},"geometry":{"type":"Point","coordinates":[127.27880999999999,37.19251]}},{"type":"Feature","properties":{"country_code":"ROU","city":"Bucharest","geoname_id":"683506","downloaders":"{\"size\":55194,\"mobile\":7413,\"satellite\":8,\"tor\":148,\"tor_exit_nodes\":7,\"vpn\":10919,\"relay\":0,\"proxy\":0,\"hosting\":11700,\"service\":8854}","uploaders":"{\"size\":995,\"mobile\":75,\"satellite\":0,\"tor\":1,\"tor_exit_nodes\":0,\"vpn\":541,\"relay\":0,\"proxy\":0,\"hosting\":580,\"service\":497}"},"geometry":{"type":"Point","coordinates":[26.10626,44.43225]}},{"type":"Feature","properties":{"country_code":"CZE","city":"Prague","geoname_id":"3067696","downloaders":"{\"size\":54433,\"mobile\":3212,\"satellite\":76,\"tor\":0,\"tor_exit_nodes\":0,\"vpn\":10876,\"relay\":18,\"proxy\":0,\"hosting\":11427,\"service\":7662}","uploaders":"{\"size\":787,\"mobile\":17,\"satellite\":0,\"tor\":0,\"tor_exit_nodes\":0,\"vpn\":615,\"relay\":0,\"proxy\":0,\"hosting\":617,\"service\":603}"},"geometry":{"type":"Point","coordinates":[14.42076,50.08804]}},{"type":"Feature","properties":{"country_code":"KOR","city":"Ulsan","geoname_id":"1833747","downloaders":"{\"size\":54260,\"mobile\":25,\"satellite\":0,\"tor\":0,\"tor_exit_nodes\":0,\"vpn\":610,\"relay\":0,\"proxy\":0,\"hosting\":0,\"service\":337}","uploaders":"{\"size\":88,\"mobile\":0,\"satellite\":0,\"tor\":0,\"tor_exit_nodes\":0,\"vpn\":0,\"relay\":0,\"proxy\":0,\"hosting\":0,\"service\":0}"},"geometry":{"type":"Point","coordinates":[129.31667,35.53722]}},{"type":"Feature","properties":{"country_code":"FRA","city":"Dunkerque","geoname_id":"3020686","downloaders":"{\"size\":52616,\"mobile\":346,\"satellite\":0,\"tor\":0,\"tor_exit_nodes\":0,\"vpn\":1551,\"relay\":0,\"proxy\":0,\"hosting\":50790,\"service\":391}","uploaders":"{\"size\":421,\"mobile\":0,\"satellite\":0,\"tor\":0,\"tor_exit_nodes\":0,\"vpn\":7,\"relay\":0,\"proxy\":0,\"hosting\":418,\"service\":5}"},"geometry":{"type":"Point","coordinates":[2.37681,51.0344]}},{"type":"Feature","properties":{"country_code":"RUS","city":"Kirov","geoname_id":"548408","downloaders":"{\"size\":52125,\"mobile\":5423,\"satellite\":0,\"tor\":0,\"tor_exit_nodes\":0,\"vpn\":4785,\"relay\":0,\"proxy\":0,\"hosting\":0,\"service\":4376}","uploaders":"{\"size\":133,\"mobile\":23,\"satellite\":0,\"tor\":0,\"tor_exit_nodes\":0,\"vpn\":5,\"relay\":0,\"proxy\":0,\"hosting\":0,\"service\":4}"},"geometry":{"type":"Point","coordinates":[49.66007,58.59665]}},{"type":"Feature","properties":{"country_code":"KOR","city":"Anyang-si","geoname_id":"1846898","downloaders":"{\"size\":50873,\"mobile\":4,\"satellite\":0,\"tor\":0,\"tor_exit_nodes\":0,\"vpn\":1072,\"relay\":0,\"proxy\":0,\"hosting\":0,\"service\":142}","uploaders":"{\"size\":96,\"mobile\":0,\"satellite\":0,\"tor\":0,\"tor_exit_nodes\":0,\"vpn\":1,\"relay\":0,\"proxy\":0,\"hosting\":0,\"service\":0}"},"geometry":{"type":"Point","coordinates":[126.92694,37.3925]}},{"type":"Feature","properties":{"country_code":"KOR","city":"Bucheon-si","geoname_id":"1838716","downloaders":"{\"size\":50725,\"mobile\":26,\"satellite\":0,\"tor\":0,\"tor_exit_nodes\":0,\"vpn\":806,\"relay\":0,\"proxy\":0,\"hosting\":0,\"service\":40}","uploaders":"{\"size\":95,\"mobile\":0,\"satellite\":0,\"tor\":0,\"tor_exit_nodes\":0,\"vpn\":2,\"relay\":0,\"proxy\":0,\"hosting\":0,\"service\":0}"},"geometry":{"type":"Point","coordinates":[126.78306,37.49889]}},{"type":"Feature","properties":{"country_code":"SGP","city":"Singapore","geoname_id":"1880252","downloaders":"{\"size\":50414,\"mobile\":3333,\"satellite\":0,\"tor\":0,\"tor_exit_nodes\":0,\"vpn\":20069,\"relay\":1,\"proxy\":0,\"hosting\":33851,\"service\":19195}","uploaders":"{\"size\":3158,\"mobile\":214,\"satellite\":0,\"tor\":0,\"tor_exit_nodes\":0,\"vpn\":1883,\"relay\":0,\"proxy\":0,\"hosting\":2627,\"service\":1833}"},"geometry":{"type":"Point","coordinates":[103.85007,1.28967]}},{"type":"Feature","properties":{"country_code":"CAN","city":"Vancouver","geoname_id":"6173331","downloaders":"{\"size\":49955,\"mobile\":3109,\"satellite\":151,\"tor\":0,\"tor_exit_nodes\":0,\"vpn\":30818,\"relay\":0,\"proxy\":0,\"hosting\":19245,\"service\":28854}","uploaders":"{\"size\":3333,\"mobile\":106,\"satellite\":4,\"tor\":0,\"tor_exit_nodes\":0,\"vpn\":2970,\"relay\":0,\"proxy\":0,\"hosting\":1835,\"service\":2853}"},"geometry":{"type":"Point","coordinates":[-123.11934,49.24966]}},{"type":"Feature","properties":{"country_code":"RUS","city":"Balashikha","geoname_id":"579464","downloaders":"{\"size\":49560,\"mobile\":915,\"satellite\":0,\"tor\":0,\"tor_exit_nodes\":0,\"vpn\":2723,\"relay\":0,\"proxy\":0,\"hosting\":2721,\"service\":145}","uploaders":"{\"size\":60,\"mobile\":1,\"satellite\":0,\"tor\":0,\"tor_exit_nodes\":0,\"vpn\":4,\"relay\":0,\"proxy\":0,\"hosting\":2,\"service\":0}"},"geometry":{"type":"Point","coordinates":[37.94794,55.79479]}},{"type":"Feature","properties":{"country_code":"DEU","city":"Falkenstein","geoname_id":"2927913","downloaders":"{\"size\":49119,\"mobile\":0,\"satellite\":0,\"tor\":0,\"tor_exit_nodes\":0,\"vpn\":51,\"relay\":0,\"proxy\":0,\"hosting\":49091,\"service\":51}","uploaders":"{\"size\":427,\"mobile\":0,\"satellite\":0,\"tor\":0,\"tor_exit_nodes\":0,\"vpn\":0,\"relay\":0,\"proxy\":0,\"hosting\":427,\"service\":0}"},"geometry":{"type":"Point","coordinates":[12.37129,50.47788]}},{"type":"Feature","properties":{"country_code":"TUR","city":"Antalya","geoname_id":"323777","downloaders":"{\"size\":48973,\"mobile\":26352,\"satellite\":0,\"tor\":0,\"tor_exit_nodes\":0,\"vpn\":31,\"relay\":0,\"proxy\":0,\"hosting\":0,\"service\":0}","uploaders":"{\"size\":27,\"mobile\":8,\"satellite\":0,\"tor\":0,\"tor_exit_nodes\":0,\"vpn\":1,\"relay\":0,\"proxy\":0,\"hosting\":0,\"service\":0}"},"geometry":{"type":"Point","coordinates":[30.69556,36.90812]}},{"type":"Feature","properties":{"country_code":"BRA","city":"Rio de Janeiro","geoname_id":"3451190","downloaders":"{\"size\":48167,\"mobile\":3931,\"satellite\":0,\"tor\":0,\"tor_exit_nodes\":0,\"vpn\":188,\"relay\":0,\"proxy\":0,\"hosting\":386,\"service\":1}","uploaders":"{\"size\":896,\"mobile\":251,\"satellite\":0,\"tor\":0,\"tor_exit_nodes\":0,\"vpn\":4,\"relay\":0,\"proxy\":0,\"hosting\":2,\"service\":0}"},"geometry":{"type":"Point","coordinates":[-43.18223,-22.90642]}},{"type":"Feature","properties":{"country_code":"TUR","city":"Gaziantep","geoname_id":"314830","downloaders":"{\"size\":48116,\"mobile\":3898,\"satellite\":0,\"tor\":0,\"tor_exit_nodes\":0,\"vpn\":4,\"relay\":0,\"proxy\":0,\"hosting\":0,\"service\":0}","uploaders":"{\"size\":4,\"mobile\":0,\"satellite\":0,\"tor\":0,\"tor_exit_nodes\":0,\"vpn\":0,\"relay\":0,\"proxy\":0,\"hosting\":0,\"service\":0}"},"geometry":{"type":"Point","coordinates":[37.3825,37.05944]}},{"type":"Feature","properties":{"country_code":"TUR","city":"Konya","geoname_id":"306571","downloaders":"{\"size\":48001,\"mobile\":11774,\"satellite\":0,\"tor\":0,\"tor_exit_nodes\":0,\"vpn\":3,\"relay\":0,\"proxy\":0,\"hosting\":0,\"service\":0}","uploaders":"{\"size\":9,\"mobile\":0,\"satellite\":0,\"tor\":0,\"tor_exit_nodes\":0,\"vpn\":0,\"relay\":0,\"proxy\":0,\"hosting\":0,\"service\":0}"},"geometry":{"type":"Point","coordinates":[32.48464,37.87135]}},{"type":"Feature","properties":{"country_code":"CHN","city":"Qingdao","geoname_id":"1797929","downloaders":"{\"size\":47694,\"mobile\":0,\"satellite\":0,\"tor\":0,\"tor_exit_nodes\":0,\"vpn\":1157,\"relay\":0,\"proxy\":0,\"hosting\":516,\"service\":0}","uploaders":"{\"size\":290,\"mobile\":0,\"satellite\":0,\"tor\":0,\"tor_exit_nodes\":0,\"vpn\":3,\"relay\":0,\"proxy\":0,\"hosting\":1,\"service\":0}"},"geometry":{"type":"Point","coordinates":[120.38042,36.06488]}},{"type":"Feature","properties":{"country_code":"USA","city":"Atlanta","geoname_id":"4180439","downloaders":"{\"size\":47333,\"mobile\":908,\"satellite\":141,\"tor\":0,\"tor_exit_nodes\":0,\"vpn\":24925,\"relay\":0,\"proxy\":0,\"hosting\":29035,\"service\":23880}","uploaders":"{\"size\":3576,\"mobile\":97,\"satellite\":6,\"tor\":0,\"tor_exit_nodes\":0,\"vpn\":3101,\"relay\":0,\"proxy\":0,\"hosting\":3035,\"service\":3007}"},"geometry":{"type":"Point","coordinates":[-84.38798,33.749]}},{"type":"Feature","properties":{"country_code":"KOR","city":"Changwon","geoname_id":"1846326","downloaders":"{\"size\":46191,\"mobile\":134,\"satellite\":0,\"tor\":0,\"tor_exit_nodes\":0,\"vpn\":333,\"relay\":0,\"proxy\":0,\"hosting\":0,\"service\":16}","uploaders":"{\"size\":69,\"mobile\":0,\"satellite\":0,\"tor\":0,\"tor_exit_nodes\":0,\"vpn\":0,\"relay\":0,\"proxy\":0,\"hosting\":0,\"service\":0}"},"geometry":{"type":"Point","coordinates":[128.68111,35.22806]}},{"type":"Feature","properties":{"country_code":"RUS","city":"Yaroslavl","geoname_id":"468902","downloaders":"{\"size\":45693,\"mobile\":5852,\"satellite\":0,\"tor\":0,\"tor_exit_nodes\":0,\"vpn\":794,\"relay\":0,\"proxy\":21,\"hosting\":0,\"service\":0}","uploaders":"{\"size\":241,\"mobile\":98,\"satellite\":0,\"tor\":0,\"tor_exit_nodes\":0,\"vpn\":1,\"relay\":0,\"proxy\":0,\"hosting\":0,\"service\":0}"},"geometry":{"type":"Point","coordinates":[39.87368,57.62987]}},{"type":"Feature","properties":{"country_code":"CHN","city":"Shenyang","geoname_id":"2034937","downloaders":"{\"size\":45369,\"mobile\":0,\"satellite\":0,\"tor\":0,\"tor_exit_nodes\":0,\"vpn\":459,\"relay\":0,\"proxy\":0,\"hosting\":0,\"service\":0}","uploaders":"{\"size\":157,\"mobile\":0,\"satellite\":0,\"tor\":0,\"tor_exit_nodes\":0,\"vpn\":4,\"relay\":0,\"proxy\":0,\"hosting\":0,\"service\":0}"},"geometry":{"type":"Point","coordinates":[123.43278,41.79222]}},{"type":"Feature","properties":{"country_code":"ITA","city":"Rome","geoname_id":"3169070","downloaders":"{\"size\":45318,\"mobile\":10456,\"satellite\":31,\"tor\":0,\"tor_exit_nodes\":0,\"vpn\":799,\"relay\":1,\"proxy\":0,\"hosting\":662,\"service\":551}","uploaders":"{\"size\":362,\"mobile\":133,\"satellite\":2,\"tor\":0,\"tor_exit_nodes\":0,\"vpn\":63,\"relay\":0,\"proxy\":0,\"hosting\":64,\"service\":59}"},"geometry":{"type":"Point","coordinates":[12.51133,41.89193]}},{"type":"Feature","properties":{"country_code":"TUR","city":"Adana","geoname_id":"325363","downloaders":"{\"size\":43829,\"mobile\":7020,\"satellite\":0,\"tor\":0,\"tor_exit_nodes\":0,\"vpn\":9,\"relay\":0,\"proxy\":0,\"hosting\":0,\"service\":5}","uploaders":"{\"size\":14,\"mobile\":5,\"satellite\":0,\"tor\":0,\"tor_exit_nodes\":0,\"vpn\":0,\"relay\":0,\"proxy\":0,\"hosting\":0,\"service\":0}"},"geometry":{"type":"Point","coordinates":[35.32531,36.98615]}},{"type":"Feature","properties":{"country_code":"RUS","city":"Tver","geoname_id":"480060","downloaders":"{\"size\":43818,\"mobile\":737,\"satellite\":0,\"tor\":0,\"tor_exit_nodes\":0,\"vpn\":779,\"relay\":0,\"proxy\":0,\"hosting\":622,\"service\":81}","uploaders":"{\"size\":74,\"mobile\":1,\"satellite\":0,\"tor\":0,\"tor_exit_nodes\":0,\"vpn\":0,\"relay\":0,\"proxy\":0,\"hosting\":2,\"service\":0}"},"geometry":{"type":"Point","coordinates":[35.90057,56.85836]}},{"type":"Feature","properties":{"country_code":"ARG","city":"Buenos Aires","geoname_id":"3435910","downloaders":"{\"size\":43664,\"mobile\":3861,\"satellite\":886,\"tor\":0,\"tor_exit_nodes\":0,\"vpn\":497,\"relay\":0,\"proxy\":0,\"hosting\":739,\"service\":291}","uploaders":"{\"size\":813,\"mobile\":60,\"satellite\":151,\"tor\":0,\"tor_exit_nodes\":0,\"vpn\":30,\"relay\":0,\"proxy\":0,\"hosting\":39,\"service\":26}"},"geometry":{"type":"Point","coordinates":[-58.37723,-34.61315]}},{"type":"Feature","properties":{"country_code":"RUS","city":"Ulyanovsk","geoname_id":"479123","downloaders":"{\"size\":42763,\"mobile\":2818,\"satellite\":0,\"tor\":0,\"tor_exit_nodes\":0,\"vpn\":275,\"relay\":0,\"proxy\":0,\"hosting\":0,\"service\":31}","uploaders":"{\"size\":82,\"mobile\":1,\"satellite\":0,\"tor\":0,\"tor_exit_nodes\":0,\"vpn\":1,\"relay\":0,\"proxy\":0,\"hosting\":0,\"service\":0}"},"geometry":{"type":"Point","coordinates":[48.38657,54.32824]}},{"type":"Feature","properties":{"country_code":"KOR","city":"Hwado","geoname_id":"1897118","downloaders":"{\"size\":42258,\"mobile\":21,\"satellite\":0,\"tor\":0,\"tor_exit_nodes\":0,\"vpn\":617,\"relay\":0,\"proxy\":0,\"hosting\":0,\"service\":42}","uploaders":"{\"size\":66,\"mobile\":0,\"satellite\":0,\"tor\":0,\"tor_exit_nodes\":0,\"vpn\":0,\"relay\":0,\"proxy\":0,\"hosting\":0,\"service\":0}"},"geometry":{"type":"Point","coordinates":[127.3075,37.6525]}},{"type":"Feature","properties":{"country_code":"IRQ","city":"Baghdad","geoname_id":"98182","downloaders":"{\"size\":42254,\"mobile\":277,\"satellite\":0,\"tor\":0,\"tor_exit_nodes\":0,\"vpn\":111,\"relay\":0,\"proxy\":1,\"hosting\":43,\"service\":9}","uploaders":"{\"size\":52,\"mobile\":0,\"satellite\":0,\"tor\":0,\"tor_exit_nodes\":0,\"vpn\":10,\"relay\":0,\"proxy\":0,\"hosting\":8,\"service\":8}"},"geometry":{"type":"Point","coordinates":[44.40088,33.34058]}},{"type":"Feature","properties":{"country_code":"RUS","city":"Surgut","geoname_id":"1490624","downloaders":"{\"size\":42187,\"mobile\":3625,\"satellite\":0,\"tor\":0,\"tor_exit_nodes\":0,\"vpn\":171,\"relay\":0,\"proxy\":0,\"hosting\":64,\"service\":60}","uploaders":"{\"size\":87,\"mobile\":10,\"satellite\":0,\"tor\":0,\"tor_exit_nodes\":0,\"vpn\":1,\"relay\":0,\"proxy\":0,\"hosting\":0,\"service\":0}"},"geometry":{"type":"Point","coordinates":[73.41775,61.25757]}},{"type":"Feature","properties":{"country_code":"LTU","city":"Vilnius","geoname_id":"593116","downloaders":"{\"size\":42121,\"mobile\":3288,\"satellite\":9,\"tor\":0,\"tor_exit_nodes\":0,\"vpn\":1773,\"relay\":0,\"proxy\":1,\"hosting\":2969,\"service\":1113}","uploaders":"{\"size\":253,\"mobile\":57,\"satellite\":0,\"tor\":0,\"tor_exit_nodes\":0,\"vpn\":56,\"relay\":0,\"proxy\":0,\"hosting\":77,\"service\":54}"},"geometry":{"type":"Point","coordinates":[25.2798,54.68916]}},{"type":"Feature","properties":{"country_code":"RUS","city":"Bryansk","geoname_id":"571476","downloaders":"{\"size\":41406,\"mobile\":24,\"satellite\":0,\"tor\":0,\"tor_exit_nodes\":0,\"vpn\":291,\"relay\":0,\"proxy\":0,\"hosting\":0,\"service\":42}","uploaders":"{\"size\":66,\"mobile\":0,\"satellite\":0,\"tor\":0,\"tor_exit_nodes\":0,\"vpn\":4,\"relay\":0,\"proxy\":0,\"hosting\":0,\"service\":0}"},"geometry":{"type":"Point","coordinates":[34.37167,53.25209]}},{"type":"Feature","properties":{"country_code":"RUS","city":"Penza","geoname_id":"511565","downloaders":"{\"size\":41365,\"mobile\":3876,\"satellite\":0,\"tor\":0,\"tor_exit_nodes\":0,\"vpn\":424,\"relay\":0,\"proxy\":0,\"hosting\":0,\"service\":14}","uploaders":"{\"size\":86,\"mobile\":24,\"satellite\":0,\"tor\":0,\"tor_exit_nodes\":0,\"vpn\":1,\"relay\":0,\"proxy\":0,\"hosting\":0,\"service\":0}"},"geometry":{"type":"Point","coordinates":[45.00464,53.20066]}},{"type":"Feature","properties":{"country_code":"RUS","city":"Cheboksary","geoname_id":"569696","downloaders":"{\"size\":40570,\"mobile\":7653,\"satellite\":0,\"tor\":0,\"tor_exit_nodes\":0,\"vpn\":476,\"relay\":0,\"proxy\":0,\"hosting\":0,\"service\":16}","uploaders":"{\"size\":167,\"mobile\":2,\"satellite\":0,\"tor\":0,\"tor_exit_nodes\":0,\"vpn\":0,\"relay\":0,\"proxy\":0,\"hosting\":0,\"service\":0}"},"geometry":{"type":"Point","coordinates":[47.25194,56.13222]}},{"type":"Feature","properties":{"country_code":"NLD","city":"Haarlem","geoname_id":"2755003","downloaders":"{\"size\":39930,\"mobile\":1,\"satellite\":0,\"tor\":0,\"tor_exit_nodes\":0,\"vpn\":20625,\"relay\":0,\"proxy\":0,\"hosting\":36631,\"service\":4141}","uploaders":"{\"size\":317,\"mobile\":0,\"satellite\":0,\"tor\":0,\"tor_exit_nodes\":0,\"vpn\":156,\"relay\":0,\"proxy\":0,\"hosting\":252,\"service\":118}"},"geometry":{"type":"Point","coordinates":[4.63683,52.38084]}},{"type":"Feature","properties":{"country_code":"RUS","city":"Izhevsk","geoname_id":"554840","downloaders":"{\"size\":39769,\"mobile\":3796,\"satellite\":0,\"tor\":0,\"tor_exit_nodes\":0,\"vpn\":487,\"relay\":0,\"proxy\":0,\"hosting\":4,\"service\":41}","uploaders":"{\"size\":177,\"mobile\":56,\"satellite\":0,\"tor\":0,\"tor_exit_nodes\":0,\"vpn\":0,\"relay\":0,\"proxy\":0,\"hosting\":0,\"service\":0}"},"geometry":{"type":"Point","coordinates":[53.20448,56.84976]}},{"type":"Feature","properties":{"country_code":"RUS","city":"Vladivostok","geoname_id":"2013348","downloaders":"{\"size\":39684,\"mobile\":1827,\"satellite\":11,\"tor\":0,\"tor_exit_nodes\":0,\"vpn\":8087,\"relay\":0,\"proxy\":0,\"hosting\":229,\"service\":5485}","uploaders":"{\"size\":183,\"mobile\":7,\"satellite\":0,\"tor\":0,\"tor_exit_nodes\":0,\"vpn\":31,\"relay\":0,\"proxy\":0,\"hosting\":1,\"service\":22}"},"geometry":{"type":"Point","coordinates":[131.87353,43.10562]}},{"type":"Feature","properties":{"country_code":"RUS","city":"Orenburg","geoname_id":"515003","downloaders":"{\"size\":39609,\"mobile\":44,\"satellite\":0,\"tor\":0,\"tor_exit_nodes\":0,\"vpn\":1151,\"relay\":0,\"proxy\":0,\"hosting\":15,\"service\":956}","uploaders":"{\"size\":113,\"mobile\":1,\"satellite\":0,\"tor\":0,\"tor_exit_nodes\":0,\"vpn\":3,\"relay\":0,\"proxy\":0,\"hosting\":0,\"service\":3}"},"geometry":{"type":"Point","coordinates":[55.0988,51.7727]}},{"type":"Feature","properties":{"country_code":"USA","city":"Dallas","geoname_id":"4684888","downloaders":"{\"size\":39136,\"mobile\":598,\"satellite\":242,\"tor\":0,\"tor_exit_nodes\":0,\"vpn\":25649,\"relay\":1,\"proxy\":0,\"hosting\":30347,\"service\":23888}","uploaders":"{\"size\":2821,\"mobile\":30,\"satellite\":13,\"tor\":0,\"tor_exit_nodes\":0,\"vpn\":2367,\"relay\":0,\"proxy\":0,\"hosting\":2579,\"service\":2312}"},"geometry":{"type":"Point","coordinates":[-96.80667,32.78306]}},{"type":"Feature","properties":{"country_code":"RUS","city":"Novokuznetsk","geoname_id":"1496990","downloaders":"{\"size\":39123,\"mobile\":62,\"satellite\":0,\"tor\":0,\"tor_exit_nodes\":0,\"vpn\":135,\"relay\":0,\"proxy\":1,\"hosting\":0,\"service\":2}","uploaders":"{\"size\":54,\"mobile\":0,\"satellite\":0,\"tor\":0,\"tor_exit_nodes\":0,\"vpn\":0,\"relay\":0,\"proxy\":0,\"hosting\":0,\"service\":0}"},"geometry":{"type":"Point","coordinates":[87.13599,53.75752]}},{"type":"Feature","properties":{"country_code":"POL","city":"Ursynów","geoname_id":"6545326","downloaders":"{\"size\":39014,\"mobile\":0,\"satellite\":0,\"tor\":0,\"tor_exit_nodes\":0,\"vpn\":1240,\"relay\":0,\"proxy\":0,\"hosting\":1247,\"service\":1239}","uploaders":"{\"size\":201,\"mobile\":0,\"satellite\":0,\"tor\":0,\"tor_exit_nodes\":0,\"vpn\":57,\"relay\":0,\"proxy\":0,\"hosting\":57,\"service\":57}"},"geometry":{"type":"Point","coordinates":[21.0068,52.1552]}},{"type":"Feature","properties":{"country_code":"RUS","city":"Odintsovo","geoname_id":"516215","downloaders":"{\"size\":38891,\"mobile\":14,\"satellite\":0,\"tor\":0,\"tor_exit_nodes\":0,\"vpn\":1153,\"relay\":0,\"proxy\":0,\"hosting\":540,\"service\":0}","uploaders":"{\"size\":70,\"mobile\":0,\"satellite\":0,\"tor\":0,\"tor_exit_nodes\":0,\"vpn\":1,\"relay\":0,\"proxy\":0,\"hosting\":3,\"service\":0}"},"geometry":{"type":"Point","coordinates":[37.27716,55.66977]}},{"type":"Feature","properties":{"country_code":"RUS","city":"Tolyatti","geoname_id":"482283","downloaders":"{\"size\":38537,\"mobile\":3,\"satellite\":0,\"tor\":0,\"tor_exit_nodes\":0,\"vpn\":388,\"relay\":0,\"proxy\":0,\"hosting\":0,\"service\":3}","uploaders":"{\"size\":97,\"mobile\":0,\"satellite\":0,\"tor\":0,\"tor_exit_nodes\":0,\"vpn\":2,\"relay\":0,\"proxy\":0,\"hosting\":0,\"service\":0}"},"geometry":{"type":"Point","coordinates":[49.3461,53.5303]}},{"type":"Feature","properties":{"country_code":"KOR","city":"Cheonan","geoname_id":"1845759","downloaders":"{\"size\":38343,\"mobile\":3,\"satellite\":0,\"tor\":0,\"tor_exit_nodes\":0,\"vpn\":329,\"relay\":0,\"proxy\":0,\"hosting\":0,\"service\":46}","uploaders":"{\"size\":60,\"mobile\":0,\"satellite\":0,\"tor\":0,\"tor_exit_nodes\":0,\"vpn\":1,\"relay\":0,\"proxy\":0,\"hosting\":0,\"service\":1}"},"geometry":{"type":"Point","coordinates":[127.1522,36.8065]}},{"type":"Feature","properties":{"country_code":"DEU","city":"Berlin","geoname_id":"2950159","downloaders":"{\"size\":37952,\"mobile\":9936,\"satellite\":448,\"tor\":59,\"tor_exit_nodes\":59,\"vpn\":5393,\"relay\":0,\"proxy\":0,\"hosting\":7321,\"service\":4256}","uploaders":"{\"size\":559,\"mobile\":8,\"satellite\":8,\"tor\":20,\"tor_exit_nodes\":20,\"vpn\":367,\"relay\":0,\"proxy\":0,\"hosting\":390,\"service\":284}"},"geometry":{"type":"Point","coordinates":[13.41053,52.52437]}},{"type":"Feature","properties":{"country_code":"TWN","city":"Taipei","geoname_id":"1668341","downloaders":"{\"size\":37873,\"mobile\":1770,\"satellite\":0,\"tor\":44,\"tor_exit_nodes\":44,\"vpn\":3099,\"relay\":2,\"proxy\":0,\"hosting\":1150,\"service\":805}","uploaders":"{\"size\":408,\"mobile\":32,\"satellite\":0,\"tor\":0,\"tor_exit_nodes\":0,\"vpn\":81,\"relay\":0,\"proxy\":0,\"hosting\":79,\"service\":71}"},"geometry":{"type":"Point","coordinates":[121.52639,25.05306]}},{"type":"Feature","properties":{"country_code":"KOR","city":"Jeonju","geoname_id":"1845457","downloaders":"{\"size\":37704,\"mobile\":106,\"satellite\":0,\"tor\":0,\"tor_exit_nodes\":0,\"vpn\":371,\"relay\":0,\"proxy\":0,\"hosting\":0,\"service\":38}","uploaders":"{\"size\":80,\"mobile\":0,\"satellite\":0,\"tor\":0,\"tor_exit_nodes\":0,\"vpn\":2,\"relay\":0,\"proxy\":0,\"hosting\":0,\"service\":0}"},"geometry":{"type":"Point","coordinates":[127.14889,35.82194]}},{"type":"Feature","properties":{"country_code":"RUS","city":"Khabarovsk","geoname_id":"2022890","downloaders":"{\"size\":37632,\"mobile\":2498,\"satellite\":34,\"tor\":0,\"tor_exit_nodes\":0,\"vpn\":594,\"relay\":0,\"proxy\":0,\"hosting\":117,\"service\":527}","uploaders":"{\"size\":129,\"mobile\":19,\"satellite\":0,\"tor\":0,\"tor_exit_nodes\":0,\"vpn\":2,\"relay\":0,\"proxy\":0,\"hosting\":0,\"service\":2}"},"geometry":{"type":"Point","coordinates":[135.08822,48.48032]}},{"type":"Feature","properties":{"country_code":"RUS","city":"Ryazan’","geoname_id":"500096","downloaders":"{\"size\":37631,\"mobile\":665,\"satellite\":0,\"tor\":0,\"tor_exit_nodes\":0,\"vpn\":949,\"relay\":0,\"proxy\":0,\"hosting\":2,\"service\":219}","uploaders":"{\"size\":115,\"mobile\":2,\"satellite\":0,\"tor\":0,\"tor_exit_nodes\":0,\"vpn\":2,\"relay\":0,\"proxy\":0,\"hosting\":0,\"service\":0}"},"geometry":{"type":"Point","coordinates":[39.6916,54.6269]}},{"type":"Feature","properties":{"country_code":"KOR","city":"Wŏnju","geoname_id":"1833105","downloaders":"{\"size\":36458,\"mobile\":53,\"satellite\":0,\"tor\":0,\"tor_exit_nodes\":0,\"vpn\":523,\"relay\":0,\"proxy\":0,\"hosting\":0,\"service\":129}","uploaders":"{\"size\":50,\"mobile\":0,\"satellite\":0,\"tor\":0,\"tor_exit_nodes\":0,\"vpn\":1,\"relay\":0,\"proxy\":0,\"hosting\":0,\"service\":0}"},"geometry":{"type":"Point","coordinates":[127.94528,37.35139]}},{"type":"Feature","properties":{"country_code":"ESP","city":"Barcelona","geoname_id":"3128760","downloaders":"{\"size\":36349,\"mobile\":13183,\"satellite\":0,\"tor\":0,\"tor_exit_nodes\":0,\"vpn\":2417,\"relay\":1,\"proxy\":0,\"hosting\":2040,\"service\":1938}","uploaders":"{\"size\":794,\"mobile\":276,\"satellite\":0,\"tor\":0,\"tor_exit_nodes\":0,\"vpn\":157,\"relay\":0,\"proxy\":0,\"hosting\":150,\"service\":146}"},"geometry":{"type":"Point","coordinates":[2.15899,41.38879]}},{"type":"Feature","properties":{"country_code":"NZL","city":"Auckland","geoname_id":"2193733","downloaders":"{\"size\":34493,\"mobile\":11599,\"satellite\":229,\"tor\":0,\"tor_exit_nodes\":0,\"vpn\":5668,\"relay\":0,\"proxy\":0,\"hosting\":5451,\"service\":5051}","uploaders":"{\"size\":1586,\"mobile\":490,\"satellite\":23,\"tor\":0,\"tor_exit_nodes\":0,\"vpn\":442,\"relay\":0,\"proxy\":0,\"hosting\":459,\"service\":420}"},"geometry":{"type":"Point","coordinates":[174.76349,-36.84853]}},{"type":"Feature","properties":{"country_code":"AUS","city":"Brisbane","geoname_id":"2174003","downloaders":"{\"size\":34400,\"mobile\":1345,\"satellite\":174,\"tor\":0,\"tor_exit_nodes\":0,\"vpn\":6378,\"relay\":0,\"proxy\":0,\"hosting\":6879,\"service\":4013}","uploaders":"{\"size\":1634,\"mobile\":107,\"satellite\":14,\"tor\":0,\"tor_exit_nodes\":0,\"vpn\":474,\"relay\":0,\"proxy\":0,\"hosting\":489,\"service\":337}"},"geometry":{"type":"Point","coordinates":[153.02809,-27.46794]}},{"type":"Feature","properties":{"country_code":"NOR","city":"Oslo","geoname_id":"3143244","downloaders":"{\"size\":34261,\"mobile\":1767,\"satellite\":581,\"tor\":18,\"tor_exit_nodes\":26,\"vpn\":9345,\"relay\":0,\"proxy\":0,\"hosting\":8177,\"service\":8430}","uploaders":"{\"size\":668,\"mobile\":25,\"satellite\":42,\"tor\":0,\"tor_exit_nodes\":0,\"vpn\":346,\"relay\":0,\"proxy\":0,\"hosting\":336,\"service\":323}"},"geometry":{"type":"Point","coordinates":[10.74609,59.91273]}},{"type":"Feature","properties":{"country_code":"KOR","city":"Munsan","geoname_id":"1840862","downloaders":"{\"size\":34200,\"mobile\":42,\"satellite\":0,\"tor\":0,\"tor_exit_nodes\":0,\"vpn\":268,\"relay\":0,\"proxy\":0,\"hosting\":0,\"service\":22}","uploaders":"{\"size\":42,\"mobile\":0,\"satellite\":0,\"tor\":0,\"tor_exit_nodes\":0,\"vpn\":1,\"relay\":0,\"proxy\":0,\"hosting\":0,\"service\":0}"},"geometry":{"type":"Point","coordinates":[126.785,37.85944]}},{"type":"Feature","properties":{"country_code":"FRA","city":"Calais","geoname_id":"3029162","downloaders":"{\"size\":33850,\"mobile\":380,\"satellite\":0,\"tor\":46,\"tor_exit_nodes\":46,\"vpn\":1034,\"relay\":0,\"proxy\":6,\"hosting\":32503,\"service\":41}","uploaders":"{\"size\":169,\"mobile\":0,\"satellite\":0,\"tor\":0,\"tor_exit_nodes\":0,\"vpn\":5,\"relay\":0,\"proxy\":0,\"hosting\":169,\"service\":1}"},"geometry":{"type":"Point","coordinates":[1.85635,50.95194]}},{"type":"Feature","properties":{"country_code":"CHN","city":"Chengdu","geoname_id":"1815286","downloaders":"{\"size\":33542,\"mobile\":0,\"satellite\":0,\"tor\":0,\"tor_exit_nodes\":0,\"vpn\":2158,\"relay\":0,\"proxy\":12,\"hosting\":1309,\"service\":0}","uploaders":"{\"size\":344,\"mobile\":0,\"satellite\":0,\"tor\":0,\"tor_exit_nodes\":0,\"vpn\":19,\"relay\":0,\"proxy\":0,\"hosting\":0,\"service\":0}"},"geometry":{"type":"Point","coordinates":[104.06667,30.66667]}},{"type":"Feature","properties":{"country_code":"RUS","city":"Vladimir","geoname_id":"473247","downloaders":"{\"size\":33502,\"mobile\":1014,\"satellite\":0,\"tor\":0,\"tor_exit_nodes\":0,\"vpn\":330,\"relay\":0,\"proxy\":0,\"hosting\":0,\"service\":0}","uploaders":"{\"size\":60,\"mobile\":24,\"satellite\":0,\"tor\":0,\"tor_exit_nodes\":0,\"vpn\":1,\"relay\":0,\"proxy\":0,\"hosting\":0,\"service\":0}"},"geometry":{"type":"Point","coordinates":[40.39658,56.13655]}},{"type":"Feature","properties":{"country_code":"ISR","city":"Tel Aviv","geoname_id":"293397","downloaders":"{\"size\":33437,\"mobile\":7501,\"satellite\":0,\"tor\":0,\"tor_exit_nodes\":0,\"vpn\":1612,\"relay\":0,\"proxy\":0,\"hosting\":2592,\"service\":1409}","uploaders":"{\"size\":1464,\"mobile\":434,\"satellite\":0,\"tor\":0,\"tor_exit_nodes\":0,\"vpn\":105,\"relay\":0,\"proxy\":0,\"hosting\":178,\"service\":98}"},"geometry":{"type":"Point","coordinates":[34.78057,32.08088]}},{"type":"Feature","properties":{"country_code":"RUS","city":"Kaliningrad","geoname_id":"554234","downloaders":"{\"size\":33313,\"mobile\":126,\"satellite\":0,\"tor\":0,\"tor_exit_nodes\":0,\"vpn\":251,\"relay\":0,\"proxy\":0,\"hosting\":2,\"service\":0}","uploaders":"{\"size\":103,\"mobile\":1,\"satellite\":0,\"tor\":0,\"tor_exit_nodes\":0,\"vpn\":0,\"relay\":0,\"proxy\":0,\"hosting\":0,\"service\":0}"},"geometry":{"type":"Point","coordinates":[20.51095,54.70649]}},{"type":"Feature","properties":{"country_code":"KOR","city":"Pyeongtaek","geoname_id":"1838343","downloaders":"{\"size\":33168,\"mobile\":0,\"satellite\":0,\"tor\":0,\"tor_exit_nodes\":0,\"vpn\":354,\"relay\":0,\"proxy\":0,\"hosting\":0,\"service\":74}","uploaders":"{\"size\":81,\"mobile\":0,\"satellite\":0,\"tor\":0,\"tor_exit_nodes\":0,\"vpn\":0,\"relay\":0,\"proxy\":0,\"hosting\":0,\"service\":0}"},"geometry":{"type":"Point","coordinates":[127.08889,36.99472]}},{"type":"Feature","properties":{"country_code":"POL","city":"Gdańsk","geoname_id":"3099434","downloaders":"{\"size\":33140,\"mobile\":721,\"satellite\":0,\"tor\":0,\"tor_exit_nodes\":0,\"vpn\":339,\"relay\":0,\"proxy\":0,\"hosting\":242,\"service\":124}","uploaders":"{\"size\":161,\"mobile\":9,\"satellite\":0,\"tor\":0,\"tor_exit_nodes\":0,\"vpn\":30,\"relay\":0,\"proxy\":0,\"hosting\":29,\"service\":29}"},"geometry":{"type":"Point","coordinates":[18.64912,54.35227]}},{"type":"Feature","properties":{"country_code":"JPN","city":"Osaka","geoname_id":"1853909","downloaders":"{\"size\":32955,\"mobile\":3131,\"satellite\":0,\"tor\":0,\"tor_exit_nodes\":0,\"vpn\":2968,\"relay\":2,\"proxy\":1,\"hosting\":3643,\"service\":2478}","uploaders":"{\"size\":265,\"mobile\":45,\"satellite\":0,\"tor\":0,\"tor_exit_nodes\":0,\"vpn\":64,\"relay\":0,\"proxy\":0,\"hosting\":138,\"service\":63}"},"geometry":{"type":"Point","coordinates":[135.50107,34.69379]}},{"type":"Feature","properties":{"country_code":"USA","city":"Miami","geoname_id":"4164138","downloaders":"{\"size\":32776,\"mobile\":303,\"satellite\":239,\"tor\":0,\"tor_exit_nodes\":0,\"vpn\":23295,\"relay\":1,\"proxy\":0,\"hosting\":28073,\"service\":22573}","uploaders":"{\"size\":2710,\"mobile\":24,\"satellite\":13,\"tor\":0,\"tor_exit_nodes\":0,\"vpn\":2378,\"relay\":0,\"proxy\":0,\"hosting\":2397,\"service\":2346}"},"geometry":{"type":"Point","coordinates":[-80.19366,25.77427]}},{"type":"Feature","properties":{"country_code":"TUR","city":"Mersin","geoname_id":"304531","downloaders":"{\"size\":32501,\"mobile\":8647,\"satellite\":0,\"tor\":0,\"tor_exit_nodes\":0,\"vpn\":3,\"relay\":0,\"proxy\":0,\"hosting\":0,\"service\":0}","uploaders":"{\"size\":14,\"mobile\":3,\"satellite\":0,\"tor\":0,\"tor_exit_nodes\":0,\"vpn\":0,\"relay\":0,\"proxy\":0,\"hosting\":0,\"service\":0}"},"geometry":{"type":"Point","coordinates":[34.63886,36.81196]}},{"type":"Feature","properties":{"country_code":"EST","city":"Tallinn","geoname_id":"588409","downloaders":"{\"size\":31905,\"mobile\":1473,\"satellite\":22,\"tor\":0,\"tor_exit_nodes\":0,\"vpn\":2638,\"relay\":0,\"proxy\":0,\"hosting\":3516,\"service\":2003}","uploaders":"{\"size\":457,\"mobile\":48,\"satellite\":0,\"tor\":0,\"tor_exit_nodes\":0,\"vpn\":169,\"relay\":0,\"proxy\":0,\"hosting\":152,\"service\":156}"},"geometry":{"type":"Point","coordinates":[24.75353,59.43696]}},{"type":"Feature","properties":{"country_code":"TUR","city":"İzmit","geoname_id":"745028","downloaders":"{\"size\":31729,\"mobile\":3410,\"satellite\":0,\"tor\":0,\"tor_exit_nodes\":0,\"vpn\":1,\"relay\":0,\"proxy\":0,\"hosting\":0,\"service\":0}","uploaders":"{\"size\":10,\"mobile\":0,\"satellite\":0,\"tor\":0,\"tor_exit_nodes\":0,\"vpn\":0,\"relay\":0,\"proxy\":0,\"hosting\":0,\"service\":0}"},"geometry":{"type":"Point","coordinates":[29.92928,40.76499]}},{"type":"Feature","properties":{"country_code":"ZAF","city":"Johannesburg","geoname_id":"993800","downloaders":"{\"size\":31231,\"mobile\":9673,\"satellite\":9,\"tor\":0,\"tor_exit_nodes\":0,\"vpn\":1907,\"relay\":0,\"proxy\":5,\"hosting\":9160,\"service\":1548}","uploaders":"{\"size\":3579,\"mobile\":1599,\"satellite\":3,\"tor\":0,\"tor_exit_nodes\":0,\"vpn\":237,\"relay\":0,\"proxy\":1,\"hosting\":852,\"service\":213}"},"geometry":{"type":"Point","coordinates":[28.04363,-26.20227]}},{"type":"Feature","properties":{"country_code":"BGR","city":"Plovdiv","geoname_id":"728193","downloaders":"{\"size\":31139,\"mobile\":613,\"satellite\":0,\"tor\":0,\"tor_exit_nodes\":0,\"vpn\":558,\"relay\":0,\"proxy\":0,\"hosting\":8750,\"service\":0}","uploaders":"{\"size\":125,\"mobile\":2,\"satellite\":0,\"tor\":0,\"tor_exit_nodes\":0,\"vpn\":3,\"relay\":0,\"proxy\":0,\"hosting\":24,\"service\":0}"},"geometry":{"type":"Point","coordinates":[24.75,42.15]}},{"type":"Feature","properties":{"country_code":"RUS","city":"Smolensk","geoname_id":"491687","downloaders":"{\"size\":30921,\"mobile\":38,\"satellite\":0,\"tor\":0,\"tor_exit_nodes\":0,\"vpn\":269,\"relay\":0,\"proxy\":0,\"hosting\":0,\"service\":56}","uploaders":"{\"size\":43,\"mobile\":0,\"satellite\":0,\"tor\":0,\"tor_exit_nodes\":0,\"vpn\":0,\"relay\":0,\"proxy\":0,\"hosting\":0,\"service\":0}"},"geometry":{"type":"Point","coordinates":[32.04371,54.77944]}},{"type":"Feature","properties":{"country_code":"RUS","city":"Kaluga","geoname_id":"553915","downloaders":"{\"size\":30876,\"mobile\":365,\"satellite\":0,\"tor\":0,\"tor_exit_nodes\":0,\"vpn\":779,\"relay\":0,\"proxy\":0,\"hosting\":1,\"service\":12}","uploaders":"{\"size\":122,\"mobile\":1,\"satellite\":0,\"tor\":0,\"tor_exit_nodes\":0,\"vpn\":7,\"relay\":0,\"proxy\":0,\"hosting\":0,\"service\":0}"},"geometry":{"type":"Point","coordinates":[36.27542,54.5293]}},{"type":"Feature","properties":{"country_code":"TWN","city":"Banqiao","geoname_id":"1670029","downloaders":"{\"size\":30690,\"mobile\":209,\"satellite\":0,\"tor\":0,\"tor_exit_nodes\":0,\"vpn\":2098,\"relay\":0,\"proxy\":0,\"hosting\":553,\"service\":155}","uploaders":"{\"size\":230,\"mobile\":4,\"satellite\":0,\"tor\":0,\"tor_exit_nodes\":0,\"vpn\":18,\"relay\":0,\"proxy\":0,\"hosting\":4,\"service\":4}"},"geometry":{"type":"Point","coordinates":[121.46719,25.01427]}},{"type":"Feature","properties":{"country_code":"CHN","city":"Wuhan","geoname_id":"1791247","downloaders":"{\"size\":30648,\"mobile\":0,\"satellite\":0,\"tor\":0,\"tor_exit_nodes\":0,\"vpn\":1496,\"relay\":0,\"proxy\":0,\"hosting\":0,\"service\":0}","uploaders":"{\"size\":239,\"mobile\":0,\"satellite\":0,\"tor\":0,\"tor_exit_nodes\":0,\"vpn\":11,\"relay\":0,\"proxy\":0,\"hosting\":0,\"service\":0}"},"geometry":{"type":"Point","coordinates":[114.26667,30.58333]}},{"type":"Feature","properties":{"country_code":"PRT","city":"Lisbon","geoname_id":"2267057","downloaders":"{\"size\":30137,\"mobile\":2103,\"satellite\":78,\"tor\":0,\"tor_exit_nodes\":0,\"vpn\":2590,\"relay\":1,\"proxy\":4,\"hosting\":2534,\"service\":2157}","uploaders":"{\"size\":1121,\"mobile\":319,\"satellite\":5,\"tor\":0,\"tor_exit_nodes\":0,\"vpn\":191,\"relay\":0,\"proxy\":3,\"hosting\":193,\"service\":186}"},"geometry":{"type":"Point","coordinates":[-9.1498,38.72509]}},{"type":"Feature","properties":{"country_code":"RUS","city":"Ivanovo","geoname_id":"555312","downloaders":"{\"size\":30130,\"mobile\":1700,\"satellite\":0,\"tor\":0,\"tor_exit_nodes\":0,\"vpn\":973,\"relay\":0,\"proxy\":0,\"hosting\":0,\"service\":83}","uploaders":"{\"size\":55,\"mobile\":7,\"satellite\":0,\"tor\":0,\"tor_exit_nodes\":0,\"vpn\":4,\"relay\":0,\"proxy\":0,\"hosting\":0,\"service\":0}"},"geometry":{"type":"Point","coordinates":[40.97139,56.99719]}},{"type":"Feature","properties":{"country_code":"MEX","city":"Guadalajara","geoname_id":"4005539","downloaders":"{\"size\":30117,\"mobile\":230,\"satellite\":0,\"tor\":0,\"tor_exit_nodes\":0,\"vpn\":34,\"relay\":0,\"proxy\":0,\"hosting\":2,\"service\":0}","uploaders":"{\"size\":148,\"mobile\":15,\"satellite\":0,\"tor\":0,\"tor_exit_nodes\":0,\"vpn\":0,\"relay\":0,\"proxy\":0,\"hosting\":0,\"service\":0}"},"geometry":{"type":"Point","coordinates":[-103.34749,20.67738]}},{"type":"Feature","properties":{"country_code":"SVK","city":"Bratislava","geoname_id":"3060972","downloaders":"{\"size\":29691,\"mobile\":1115,\"satellite\":24,\"tor\":0,\"tor_exit_nodes\":0,\"vpn\":2681,\"relay\":0,\"proxy\":0,\"hosting\":3107,\"service\":2069}","uploaders":"{\"size\":306,\"mobile\":6,\"satellite\":0,\"tor\":0,\"tor_exit_nodes\":0,\"vpn\":199,\"relay\":0,\"proxy\":0,\"hosting\":238,\"service\":193}"},"geometry":{"type":"Point","coordinates":[17.10674,48.14816]}},{"type":"Feature","properties":{"country_code":"HRV","city":"Zagreb","geoname_id":"3186886","downloaders":"{\"size\":29470,\"mobile\":3316,\"satellite\":22,\"tor\":0,\"tor_exit_nodes\":0,\"vpn\":2043,\"relay\":0,\"proxy\":0,\"hosting\":2117,\"service\":1557}","uploaders":"{\"size\":1464,\"mobile\":233,\"satellite\":2,\"tor\":0,\"tor_exit_nodes\":0,\"vpn\":148,\"relay\":0,\"proxy\":0,\"hosting\":246,\"service\":90}"},"geometry":{"type":"Point","coordinates":[15.97798,45.81444]}},{"type":"Feature","properties":{"country_code":"FRA","city":"Marseille","geoname_id":"2995469","downloaders":"{\"size\":29466,\"mobile\":7067,\"satellite\":0,\"tor\":0,\"tor_exit_nodes\":0,\"vpn\":6986,\"relay\":0,\"proxy\":0,\"hosting\":8142,\"service\":6955}","uploaders":"{\"size\":648,\"mobile\":29,\"satellite\":0,\"tor\":0,\"tor_exit_nodes\":0,\"vpn\":504,\"relay\":0,\"proxy\":0,\"hosting\":570,\"service\":504}"},"geometry":{"type":"Point","coordinates":[5.38107,43.29695]}},{"type":"Feature","properties":{"country_code":"RUS","city":"Kursk","geoname_id":"538560","downloaders":"{\"size\":29351,\"mobile\":43,\"satellite\":0,\"tor\":0,\"tor_exit_nodes\":0,\"vpn\":238,\"relay\":0,\"proxy\":1,\"hosting\":711,\"service\":2}","uploaders":"{\"size\":61,\"mobile\":0,\"satellite\":0,\"tor\":0,\"tor_exit_nodes\":0,\"vpn\":0,\"relay\":0,\"proxy\":0,\"hosting\":4,\"service\":0}"},"geometry":{"type":"Point","coordinates":[36.18712,51.73758]}},{"type":"Feature","properties":{"country_code":"CHN","city":"Quanzhou","geoname_id":"1797353","downloaders":"{\"size\":29196,\"mobile\":0,\"satellite\":0,\"tor\":0,\"tor_exit_nodes\":0,\"vpn\":359,\"relay\":0,\"proxy\":0,\"hosting\":0,\"service\":0}","uploaders":"{\"size\":36,\"mobile\":0,\"satellite\":0,\"tor\":0,\"tor_exit_nodes\":0,\"vpn\":4,\"relay\":0,\"proxy\":0,\"hosting\":0,\"service\":0}"},"geometry":{"type":"Point","coordinates":[118.58583,24.91389]}},{"type":"Feature","properties":{"country_code":"RUS","city":"Stavropol’","geoname_id":"487846","downloaders":"{\"size\":29057,\"mobile\":8376,\"satellite\":0,\"tor\":0,\"tor_exit_nodes\":0,\"vpn\":229,\"relay\":0,\"proxy\":0,\"hosting\":0,\"service\":24}","uploaders":"{\"size\":313,\"mobile\":36,\"satellite\":0,\"tor\":0,\"tor_exit_nodes\":0,\"vpn\":0,\"relay\":0,\"proxy\":0,\"hosting\":0,\"service\":0}"},"geometry":{"type":"Point","coordinates":[41.9734,45.0428]}},{"type":"Feature","properties":{"country_code":"RUS","city":"Korolev","geoname_id":"554233","downloaders":"{\"size\":28623,\"mobile\":23,\"satellite\":0,\"tor\":0,\"tor_exit_nodes\":0,\"vpn\":774,\"relay\":0,\"proxy\":0,\"hosting\":995,\"service\":3}","uploaders":"{\"size\":55,\"mobile\":0,\"satellite\":0,\"tor\":0,\"tor_exit_nodes\":0,\"vpn\":1,\"relay\":0,\"proxy\":0,\"hosting\":0,\"service\":0}"},"geometry":{"type":"Point","coordinates":[37.82556,55.91417]}},{"type":"Feature","properties":{"country_code":"USA","city":"Seattle","geoname_id":"5809844","downloaders":"{\"size\":28576,\"mobile\":824,\"satellite\":278,\"tor\":0,\"tor_exit_nodes\":0,\"vpn\":19943,\"relay\":5,\"proxy\":2,\"hosting\":20700,\"service\":16627}","uploaders":"{\"size\":2009,\"mobile\":156,\"satellite\":1,\"tor\":0,\"tor_exit_nodes\":0,\"vpn\":1629,\"relay\":0,\"proxy\":0,\"hosting\":1719,\"service\":1558}"},"geometry":{"type":"Point","coordinates":[-122.33207,47.60621]}},{"type":"Feature","properties":{"country_code":"TUR","city":"Samsun","geoname_id":"740264","downloaders":"{\"size\":28404,\"mobile\":6465,\"satellite\":0,\"tor\":0,\"tor_exit_nodes\":0,\"vpn\":0,\"relay\":0,\"proxy\":0,\"hosting\":0,\"service\":0}","uploaders":"{\"size\":14,\"mobile\":8,\"satellite\":0,\"tor\":0,\"tor_exit_nodes\":0,\"vpn\":0,\"relay\":0,\"proxy\":0,\"hosting\":0,\"service\":0}"},"geometry":{"type":"Point","coordinates":[36.3361,41.27976]}},{"type":"Feature","properties":{"country_code":"TUR","city":"Kayseri","geoname_id":"308464","downloaders":"{\"size\":27945,\"mobile\":6450,\"satellite\":0,\"tor\":0,\"tor_exit_nodes\":0,\"vpn\":3,\"relay\":0,\"proxy\":0,\"hosting\":0,\"service\":0}","uploaders":"{\"size\":11,\"mobile\":2,\"satellite\":0,\"tor\":0,\"tor_exit_nodes\":0,\"vpn\":0,\"relay\":0,\"proxy\":0,\"hosting\":0,\"service\":0}"},"geometry":{"type":"Point","coordinates":[35.48528,38.73222]}},{"type":"Feature","properties":{"country_code":"THA","city":"Bangkok","geoname_id":"1609350","downloaders":"{\"size\":27775,\"mobile\":9760,\"satellite\":0,\"tor\":0,\"tor_exit_nodes\":0,\"vpn\":1302,\"relay\":0,\"proxy\":0,\"hosting\":2740,\"service\":911}","uploaders":"{\"size\":679,\"mobile\":121,\"satellite\":0,\"tor\":0,\"tor_exit_nodes\":0,\"vpn\":61,\"relay\":0,\"proxy\":0,\"hosting\":141,\"service\":59}"},"geometry":{"type":"Point","coordinates":[100.50144,13.75398]}},{"type":"Feature","properties":{"country_code":"KOR","city":"Gwangju","geoname_id":"1841810","downloaders":"{\"size\":27708,\"mobile\":33,\"satellite\":0,\"tor\":0,\"tor_exit_nodes\":0,\"vpn\":272,\"relay\":0,\"proxy\":0,\"hosting\":0,\"service\":84}","uploaders":"{\"size\":58,\"mobile\":0,\"satellite\":0,\"tor\":0,\"tor_exit_nodes\":0,\"vpn\":3,\"relay\":0,\"proxy\":0,\"hosting\":0,\"service\":1}"},"geometry":{"type":"Point","coordinates":[127.25722,37.41]}},{"type":"Feature","properties":{"country_code":"SWE","city":"Göteborg","geoname_id":"2711537","downloaders":"{\"size\":27652,\"mobile\":2510,\"satellite\":0,\"tor\":2,\"tor_exit_nodes\":2,\"vpn\":5803,\"relay\":0,\"proxy\":0,\"hosting\":4120,\"service\":5380}","uploaders":"{\"size\":459,\"mobile\":39,\"satellite\":0,\"tor\":1,\"tor_exit_nodes\":1,\"vpn\":236,\"relay\":0,\"proxy\":0,\"hosting\":208,\"service\":235}"},"geometry":{"type":"Point","coordinates":[11.96679,57.70716]}},{"type":"Feature","properties":{"country_code":"CHL","city":"Santiago","geoname_id":"3871336","downloaders":"{\"size\":27568,\"mobile\":6334,\"satellite\":275,\"tor\":0,\"tor_exit_nodes\":0,\"vpn\":355,\"relay\":0,\"proxy\":1,\"hosting\":2314,\"service\":292}","uploaders":"{\"size\":845,\"mobile\":298,\"satellite\":61,\"tor\":0,\"tor_exit_nodes\":0,\"vpn\":45,\"relay\":0,\"proxy\":0,\"hosting\":66,\"service\":41}"},"geometry":{"type":"Point","coordinates":[-70.64827,-33.45694]}},{"type":"Feature","properties":{"country_code":"KOR","city":"Uijeongbu-si","geoname_id":"1833788","downloaders":"{\"size\":27556,\"mobile\":11,\"satellite\":0,\"tor\":0,\"tor_exit_nodes\":0,\"vpn\":272,\"relay\":0,\"proxy\":0,\"hosting\":0,\"service\":69}","uploaders":"{\"size\":48,\"mobile\":0,\"satellite\":0,\"tor\":0,\"tor_exit_nodes\":0,\"vpn\":1,\"relay\":0,\"proxy\":0,\"hosting\":0,\"service\":0}"},"geometry":{"type":"Point","coordinates":[127.0474,37.7415]}},{"type":"Feature","properties":{"country_code":"RUS","city":"Podolsk","geoname_id":"508101","downloaders":"{\"size\":27098,\"mobile\":169,\"satellite\":0,\"tor\":0,\"tor_exit_nodes\":0,\"vpn\":949,\"relay\":0,\"proxy\":0,\"hosting\":652,\"service\":25}","uploaders":"{\"size\":49,\"mobile\":0,\"satellite\":0,\"tor\":0,\"tor_exit_nodes\":0,\"vpn\":2,\"relay\":0,\"proxy\":0,\"hosting\":1,\"service\":0}"},"geometry":{"type":"Point","coordinates":[37.55472,55.42419]}},{"type":"Feature","properties":{"country_code":"JPN","city":"Yokohama","geoname_id":"1848354","downloaders":"{\"size\":26885,\"mobile\":2162,\"satellite\":0,\"tor\":0,\"tor_exit_nodes\":0,\"vpn\":1769,\"relay\":0,\"proxy\":0,\"hosting\":720,\"service\":1204}","uploaders":"{\"size\":44,\"mobile\":5,\"satellite\":0,\"tor\":0,\"tor_exit_nodes\":0,\"vpn\":2,\"relay\":0,\"proxy\":0,\"hosting\":0,\"service\":1}"},"geometry":{"type":"Point","coordinates":[139.65,35.43333]}},{"type":"Feature","properties":{"country_code":"AUT","city":"Vienna","geoname_id":"2761369","downloaders":"{\"size\":26549,\"mobile\":3301,\"satellite\":58,\"tor\":0,\"tor_exit_nodes\":0,\"vpn\":5442,\"relay\":0,\"proxy\":82,\"hosting\":6972,\"service\":5060}","uploaders":"{\"size\":511,\"mobile\":62,\"satellite\":0,\"tor\":0,\"tor_exit_nodes\":0,\"vpn\":307,\"relay\":0,\"proxy\":2,\"hosting\":342,\"service\":299}"},"geometry":{"type":"Point","coordinates":[16.37208,48.20849]}},{"type":"Feature","properties":{"country_code":"RUS","city":"Murmansk","geoname_id":"524305","downloaders":"{\"size\":26387,\"mobile\":1791,\"satellite\":0,\"tor\":0,\"tor_exit_nodes\":0,\"vpn\":250,\"relay\":0,\"proxy\":0,\"hosting\":0,\"service\":28}","uploaders":"{\"size\":45,\"mobile\":8,\"satellite\":0,\"tor\":0,\"tor_exit_nodes\":0,\"vpn\":0,\"relay\":0,\"proxy\":0,\"hosting\":0,\"service\":0}"},"geometry":{"type":"Point","coordinates":[33.09747,68.97398]}},{"type":"Feature","properties":{"country_code":"RUS","city":"Lyubertsy","geoname_id":"532615","downloaders":"{\"size\":26243,\"mobile\":168,\"satellite\":0,\"tor\":0,\"tor_exit_nodes\":0,\"vpn\":728,\"relay\":0,\"proxy\":0,\"hosting\":3018,\"service\":28}","uploaders":"{\"size\":61,\"mobile\":0,\"satellite\":0,\"tor\":0,\"tor_exit_nodes\":0,\"vpn\":4,\"relay\":0,\"proxy\":0,\"hosting\":3,\"service\":0}"},"geometry":{"type":"Point","coordinates":[37.89322,55.67719]}},{"type":"Feature","properties":{"country_code":"TUR","city":"Diyarbakır","geoname_id":"316541","downloaders":"{\"size\":26139,\"mobile\":5634,\"satellite\":0,\"tor\":0,\"tor_exit_nodes\":0,\"vpn\":3,\"relay\":0,\"proxy\":0,\"hosting\":0,\"service\":0}","uploaders":"{\"size\":3,\"mobile\":1,\"satellite\":0,\"tor\":0,\"tor_exit_nodes\":0,\"vpn\":0,\"relay\":0,\"proxy\":0,\"hosting\":0,\"service\":0}"},"geometry":{"type":"Point","coordinates":[40.21721,37.91363]}},{"type":"Feature","properties":{"country_code":"KOR","city":"Gumi","geoname_id":"1842225","downloaders":"{\"size\":25980,\"mobile\":6,\"satellite\":0,\"tor\":0,\"tor_exit_nodes\":0,\"vpn\":59,\"relay\":0,\"proxy\":0,\"hosting\":0,\"service\":33}","uploaders":"{\"size\":30,\"mobile\":0,\"satellite\":0,\"tor\":0,\"tor_exit_nodes\":0,\"vpn\":0,\"relay\":0,\"proxy\":0,\"hosting\":0,\"service\":0}"},"geometry":{"type":"Point","coordinates":[128.336,36.1136]}},{"type":"Feature","properties":{"country_code":"USA","city":"Phoenix","geoname_id":"5308655","downloaders":"{\"size\":25944,\"mobile\":323,\"satellite\":264,\"tor\":0,\"tor_exit_nodes\":0,\"vpn\":5913,\"relay\":2,\"proxy\":0,\"hosting\":9974,\"service\":5273}","uploaders":"{\"size\":833,\"mobile\":17,\"satellite\":15,\"tor\":0,\"tor_exit_nodes\":0,\"vpn\":522,\"relay\":0,\"proxy\":0,\"hosting\":658,\"service\":468}"},"geometry":{"type":"Point","coordinates":[-112.07404,33.44838]}},{"type":"Feature","properties":{"country_code":"NLD","city":"Rotterdam","geoname_id":"2747891","downloaders":"{\"size\":25739,\"mobile\":931,\"satellite\":0,\"tor\":0,\"tor_exit_nodes\":0,\"vpn\":1420,\"relay\":3,\"proxy\":0,\"hosting\":1576,\"service\":1035}","uploaders":"{\"size\":390,\"mobile\":81,\"satellite\":0,\"tor\":0,\"tor_exit_nodes\":0,\"vpn\":101,\"relay\":0,\"proxy\":0,\"hosting\":101,\"service\":99}"},"geometry":{"type":"Point","coordinates":[4.47917,51.9225]}},{"type":"Feature","properties":{"country_code":"KAZ","city":"Almaty","geoname_id":"1526384","downloaders":"{\"size\":25640,\"mobile\":2900,\"satellite\":0,\"tor\":0,\"tor_exit_nodes\":0,\"vpn\":227,\"relay\":0,\"proxy\":0,\"hosting\":4658,\"service\":8}","uploaders":"{\"size\":194,\"mobile\":32,\"satellite\":0,\"tor\":0,\"tor_exit_nodes\":0,\"vpn\":2,\"relay\":0,\"proxy\":0,\"hosting\":38,\"service\":1}"},"geometry":{"type":"Point","coordinates":[76.9115,43.25249]}},{"type":"Feature","properties":{"country_code":"COL","city":"Bogotá","geoname_id":"3688689","downloaders":"{\"size\":25081,\"mobile\":9802,\"satellite\":358,\"tor\":0,\"tor_exit_nodes\":0,\"vpn\":1120,\"relay\":0,\"proxy\":0,\"hosting\":1738,\"service\":868}","uploaders":"{\"size\":631,\"mobile\":296,\"satellite\":67,\"tor\":0,\"tor_exit_nodes\":0,\"vpn\":80,\"relay\":0,\"proxy\":0,\"hosting\":118,\"service\":74}"},"geometry":{"type":"Point","coordinates":[-74.08175,4.60971]}},{"type":"Feature","properties":{"country_code":"RUS","city":"Mytishchi","geoname_id":"523812","downloaders":"{\"size\":24579,\"mobile\":26,\"satellite\":0,\"tor\":0,\"tor_exit_nodes\":0,\"vpn\":1025,\"relay\":0,\"proxy\":0,\"hosting\":523,\"service\":9}","uploaders":"{\"size\":34,\"mobile\":0,\"satellite\":0,\"tor\":0,\"tor_exit_nodes\":0,\"vpn\":2,\"relay\":0,\"proxy\":0,\"hosting\":1,\"service\":0}"},"geometry":{"type":"Point","coordinates":[37.72964,55.91099]}},{"type":"Feature","properties":{"country_code":"KOR","city":"Jeju City","geoname_id":"1846266","downloaders":"{\"size\":24508,\"mobile\":1,\"satellite\":0,\"tor\":0,\"tor_exit_nodes\":0,\"vpn\":116,\"relay\":0,\"proxy\":0,\"hosting\":0,\"service\":27}","uploaders":"{\"size\":36,\"mobile\":0,\"satellite\":0,\"tor\":0,\"tor_exit_nodes\":0,\"vpn\":0,\"relay\":0,\"proxy\":0,\"hosting\":0,\"service\":0}"},"geometry":{"type":"Point","coordinates":[126.52194,33.50972]}},{"type":"Feature","properties":{"country_code":"KOR","city":"Asan","geoname_id":"1839726","downloaders":"{\"size\":24472,\"mobile\":6,\"satellite\":0,\"tor\":0,\"tor_exit_nodes\":0,\"vpn\":198,\"relay\":0,\"proxy\":0,\"hosting\":0,\"service\":35}","uploaders":"{\"size\":30,\"mobile\":0,\"satellite\":0,\"tor\":0,\"tor_exit_nodes\":0,\"vpn\":0,\"relay\":0,\"proxy\":0,\"hosting\":0,\"service\":0}"},"geometry":{"type":"Point","coordinates":[127.00417,36.78361]}},{"type":"Feature","properties":{"country_code":"RUS","city":"Pushkino","geoname_id":"503977","downloaders":"{\"size\":24339,\"mobile\":34,\"satellite\":0,\"tor\":0,\"tor_exit_nodes\":0,\"vpn\":820,\"relay\":0,\"proxy\":0,\"hosting\":448,\"service\":13}","uploaders":"{\"size\":21,\"mobile\":0,\"satellite\":0,\"tor\":0,\"tor_exit_nodes\":0,\"vpn\":0,\"relay\":0,\"proxy\":0,\"hosting\":0,\"service\":0}"},"geometry":{"type":"Point","coordinates":[37.82897,55.99456]}},{"type":"Feature","properties":{"country_code":"SAU","city":"Riyadh","geoname_id":"108410","downloaders":"{\"size\":24316,\"mobile\":5688,\"satellite\":0,\"tor\":0,\"tor_exit_nodes\":0,\"vpn\":227,\"relay\":0,\"proxy\":0,\"hosting\":257,\"service\":154}","uploaders":"{\"size\":711,\"mobile\":216,\"satellite\":0,\"tor\":0,\"tor_exit_nodes\":0,\"vpn\":33,\"relay\":0,\"proxy\":0,\"hosting\":59,\"service\":31}"},"geometry":{"type":"Point","coordinates":[46.72185,24.68773]}},{"type":"Feature","properties":{"country_code":"EGY","city":"Cairo","geoname_id":"360630","downloaders":"{\"size\":24288,\"mobile\":1838,\"satellite\":0,\"tor\":0,\"tor_exit_nodes\":0,\"vpn\":96,\"relay\":0,\"proxy\":0,\"hosting\":112,\"service\":77}","uploaders":"{\"size\":336,\"mobile\":39,\"satellite\":0,\"tor\":0,\"tor_exit_nodes\":0,\"vpn\":16,\"relay\":0,\"proxy\":0,\"hosting\":16,\"service\":16}"},"geometry":{"type":"Point","coordinates":[31.24967,30.06263]}},{"type":"Feature","properties":{"country_code":"UZB","city":"Tashkent","geoname_id":"1512569","downloaders":"{\"size\":24226,\"mobile\":513,\"satellite\":0,\"tor\":0,\"tor_exit_nodes\":0,\"vpn\":716,\"relay\":0,\"proxy\":0,\"hosting\":19337,\"service\":422}","uploaders":"{\"size\":149,\"mobile\":2,\"satellite\":0,\"tor\":0,\"tor_exit_nodes\":0,\"vpn\":3,\"relay\":0,\"proxy\":0,\"hosting\":132,\"service\":0}"},"geometry":{"type":"Point","coordinates":[69.21627,41.26465]}},{"type":"Feature","properties":{"country_code":"RUS","city":"Tambov","geoname_id":"484646","downloaders":"{\"size\":24120,\"mobile\":482,\"satellite\":0,\"tor\":0,\"tor_exit_nodes\":0,\"vpn\":302,\"relay\":0,\"proxy\":0,\"hosting\":0,\"service\":0}","uploaders":"{\"size\":61,\"mobile\":8,\"satellite\":0,\"tor\":0,\"tor_exit_nodes\":0,\"vpn\":1,\"relay\":0,\"proxy\":0,\"hosting\":0,\"service\":0}"},"geometry":{"type":"Point","coordinates":[41.44326,52.73169]}},{"type":"Feature","properties":{"country_code":"KOR","city":"Chinju","geoname_id":"1846052","downloaders":"{\"size\":23870,\"mobile\":5,\"satellite\":0,\"tor\":0,\"tor_exit_nodes\":0,\"vpn\":248,\"relay\":0,\"proxy\":0,\"hosting\":0,\"service\":20}","uploaders":"{\"size\":32,\"mobile\":0,\"satellite\":0,\"tor\":0,\"tor_exit_nodes\":0,\"vpn\":1,\"relay\":0,\"proxy\":0,\"hosting\":0,\"service\":0}"},"geometry":{"type":"Point","coordinates":[128.08472,35.19278]}},{"type":"Feature","properties":{"country_code":"KOR","city":"Kimhae","geoname_id":"1842943","downloaders":"{\"size\":23738,\"mobile\":40,\"satellite\":0,\"tor\":0,\"tor_exit_nodes\":0,\"vpn\":178,\"relay\":0,\"proxy\":0,\"hosting\":0,\"service\":7}","uploaders":"{\"size\":30,\"mobile\":0,\"satellite\":0,\"tor\":0,\"tor_exit_nodes\":0,\"vpn\":0,\"relay\":0,\"proxy\":0,\"hosting\":0,\"service\":0}"},"geometry":{"type":"Point","coordinates":[128.88111,35.23417]}},{"type":"Feature","properties":{"country_code":"RUS","city":"Belgorod","geoname_id":"578072","downloaders":"{\"size\":23476,\"mobile\":3763,\"satellite\":0,\"tor\":0,\"tor_exit_nodes\":0,\"vpn\":345,\"relay\":0,\"proxy\":0,\"hosting\":8,\"service\":37}","uploaders":"{\"size\":51,\"mobile\":11,\"satellite\":0,\"tor\":0,\"tor_exit_nodes\":0,\"vpn\":0,\"relay\":0,\"proxy\":0,\"hosting\":0,\"service\":0}"},"geometry":{"type":"Point","coordinates":[36.58015,50.61074]}},{"type":"Feature","properties":{"country_code":"TWN","city":"Taichung","geoname_id":"1668399","downloaders":"{\"size\":23404,\"mobile\":588,\"satellite\":0,\"tor\":0,\"tor_exit_nodes\":0,\"vpn\":1058,\"relay\":0,\"proxy\":0,\"hosting\":13,\"service\":0}","uploaders":"{\"size\":169,\"mobile\":2,\"satellite\":0,\"tor\":0,\"tor_exit_nodes\":0,\"vpn\":2,\"relay\":0,\"proxy\":0,\"hosting\":0,\"service\":0}"},"geometry":{"type":"Point","coordinates":[120.6839,24.1469]}},{"type":"Feature","properties":{"country_code":"PRT","city":"Porto","geoname_id":"2735943","downloaders":"{\"size\":23389,\"mobile\":818,\"satellite\":0,\"tor\":0,\"tor_exit_nodes\":0,\"vpn\":310,\"relay\":0,\"proxy\":0,\"hosting\":103,\"service\":101}","uploaders":"{\"size\":414,\"mobile\":25,\"satellite\":0,\"tor\":0,\"tor_exit_nodes\":0,\"vpn\":32,\"relay\":0,\"proxy\":0,\"hosting\":29,\"service\":29}"},"geometry":{"type":"Point","coordinates":[-8.61099,41.14961]}},{"type":"Feature","properties":{"country_code":"RUS","city":"Abakan","geoname_id":"1512236","downloaders":"{\"size\":23261,\"mobile\":0,\"satellite\":0,\"tor\":0,\"tor_exit_nodes\":0,\"vpn\":60,\"relay\":0,\"proxy\":0,\"hosting\":0,\"service\":27}","uploaders":"{\"size\":40,\"mobile\":0,\"satellite\":0,\"tor\":0,\"tor_exit_nodes\":0,\"vpn\":0,\"relay\":0,\"proxy\":0,\"hosting\":0,\"service\":0}"},"geometry":{"type":"Point","coordinates":[91.42638,53.71541]}},{"type":"Feature","properties":{"country_code":"RUS","city":"Orël","geoname_id":"515012","downloaders":"{\"size\":23165,\"mobile\":527,\"satellite\":0,\"tor\":0,\"tor_exit_nodes\":0,\"vpn\":145,\"relay\":0,\"proxy\":0,\"hosting\":0,\"service\":1}","uploaders":"{\"size\":42,\"mobile\":0,\"satellite\":0,\"tor\":0,\"tor_exit_nodes\":0,\"vpn\":0,\"relay\":0,\"proxy\":0,\"hosting\":0,\"service\":0}"},"geometry":{"type":"Point","coordinates":[36.07805,52.95932]}},{"type":"Feature","properties":{"country_code":"RUS","city":"Naberezhnyye Chelny","geoname_id":"523750","downloaders":"{\"size\":23121,\"mobile\":761,\"satellite\":0,\"tor\":0,\"tor_exit_nodes\":0,\"vpn\":230,\"relay\":0,\"proxy\":0,\"hosting\":5,\"service\":0}","uploaders":"{\"size\":70,\"mobile\":4,\"satellite\":0,\"tor\":0,\"tor_exit_nodes\":0,\"vpn\":1,\"relay\":0,\"proxy\":0,\"hosting\":0,\"service\":0}"},"geometry":{"type":"Point","coordinates":[52.41122,55.72545]}},{"type":"Feature","properties":{"country_code":"RUS","city":"Angarsk","geoname_id":"2027667","downloaders":"{\"size\":23118,\"mobile\":2,\"satellite\":0,\"tor\":0,\"tor_exit_nodes\":0,\"vpn\":34,\"relay\":0,\"proxy\":0,\"hosting\":0,\"service\":0}","uploaders":"{\"size\":98,\"mobile\":0,\"satellite\":0,\"tor\":0,\"tor_exit_nodes\":0,\"vpn\":0,\"relay\":0,\"proxy\":0,\"hosting\":0,\"service\":0}"},"geometry":{"type":"Point","coordinates":[103.8195,52.4546]}},{"type":"Feature","properties":{"country_code":"KOR","city":"Pohang","geoname_id":"1839071","downloaders":"{\"size\":22910,\"mobile\":1,\"satellite\":0,\"tor\":0,\"tor_exit_nodes\":0,\"vpn\":76,\"relay\":0,\"proxy\":0,\"hosting\":0,\"service\":2}","uploaders":"{\"size\":42,\"mobile\":0,\"satellite\":0,\"tor\":0,\"tor_exit_nodes\":0,\"vpn\":0,\"relay\":0,\"proxy\":0,\"hosting\":0,\"service\":0}"},"geometry":{"type":"Point","coordinates":[129.36481,36.02917]}},{"type":"Feature","properties":{"country_code":"RUS","city":"Kurgan","geoname_id":"1501321","downloaders":"{\"size\":22801,\"mobile\":2928,\"satellite\":0,\"tor\":0,\"tor_exit_nodes\":0,\"vpn\":186,\"relay\":0,\"proxy\":0,\"hosting\":5,\"service\":34}","uploaders":"{\"size\":85,\"mobile\":30,\"satellite\":0,\"tor\":0,\"tor_exit_nodes\":0,\"vpn\":2,\"relay\":0,\"proxy\":0,\"hosting\":0,\"service\":0}"},"geometry":{"type":"Point","coordinates":[65.33333,55.45]}},{"type":"Feature","properties":{"country_code":"CHN","city":"Shaoxing","geoname_id":"1795855","downloaders":"{\"size\":22717,\"mobile\":0,\"satellite\":0,\"tor\":0,\"tor_exit_nodes\":0,\"vpn\":40,\"relay\":0,\"proxy\":0,\"hosting\":18769,\"service\":0}","uploaders":"{\"size\":25,\"mobile\":0,\"satellite\":0,\"tor\":0,\"tor_exit_nodes\":0,\"vpn\":1,\"relay\":0,\"proxy\":0,\"hosting\":1,\"service\":0}"},"geometry":{"type":"Point","coordinates":[120.57864,30.00237]}},{"type":"Feature","properties":{"country_code":"AUS","city":"Perth","geoname_id":"2063523","downloaders":"{\"size\":22712,\"mobile\":802,\"satellite\":129,\"tor\":0,\"tor_exit_nodes\":0,\"vpn\":4791,\"relay\":0,\"proxy\":37,\"hosting\":5039,\"service\":4178}","uploaders":"{\"size\":1341,\"mobile\":64,\"satellite\":4,\"tor\":0,\"tor_exit_nodes\":0,\"vpn\":555,\"relay\":0,\"proxy\":2,\"hosting\":583,\"service\":551}"},"geometry":{"type":"Point","coordinates":[115.8614,-31.95224]}},{"type":"Feature","properties":{"country_code":"KOR","city":"Yangju","geoname_id":"1832847","downloaders":"{\"size\":22703,\"mobile\":1,\"satellite\":0,\"tor\":0,\"tor_exit_nodes\":0,\"vpn\":379,\"relay\":0,\"proxy\":0,\"hosting\":0,\"service\":75}","uploaders":"{\"size\":40,\"mobile\":0,\"satellite\":0,\"tor\":0,\"tor_exit_nodes\":0,\"vpn\":0,\"relay\":0,\"proxy\":0,\"hosting\":0,\"service\":0}"},"geometry":{"type":"Point","coordinates":[127.06169,37.83311]}},{"type":"Feature","properties":{"country_code":"KOR","city":"Chuncheon","geoname_id":"1845136","downloaders":"{\"size\":22502,\"mobile\":11,\"satellite\":0,\"tor\":0,\"tor_exit_nodes\":0,\"vpn\":279,\"relay\":0,\"proxy\":0,\"hosting\":4383,\"service\":62}","uploaders":"{\"size\":36,\"mobile\":0,\"satellite\":0,\"tor\":0,\"tor_exit_nodes\":0,\"vpn\":0,\"relay\":0,\"proxy\":0,\"hosting\":6,\"service\":0}"},"geometry":{"type":"Point","coordinates":[127.73417,37.87472]}},{"type":"Feature","properties":{"country_code":"POL","city":"Wrocław","geoname_id":"3081368","downloaders":"{\"size\":22472,\"mobile\":277,\"satellite\":0,\"tor\":0,\"tor_exit_nodes\":0,\"vpn\":225,\"relay\":0,\"proxy\":0,\"hosting\":164,\"service\":0}","uploaders":"{\"size\":115,\"mobile\":6,\"satellite\":0,\"tor\":0,\"tor_exit_nodes\":0,\"vpn\":0,\"relay\":0,\"proxy\":0,\"hosting\":3,\"service\":0}"},"geometry":{"type":"Point","coordinates":[17.0678,51.0805]}},{"type":"Feature","properties":{"country_code":"PAK","city":"Lahore","geoname_id":"1172451","downloaders":"{\"size\":22446,\"mobile\":431,\"satellite\":0,\"tor\":0,\"tor_exit_nodes\":0,\"vpn\":97,\"relay\":0,\"proxy\":0,\"hosting\":18076,\"service\":32}","uploaders":"{\"size\":693,\"mobile\":59,\"satellite\":0,\"tor\":0,\"tor_exit_nodes\":0,\"vpn\":12,\"relay\":0,\"proxy\":0,\"hosting\":138,\"service\":12}"},"geometry":{"type":"Point","coordinates":[74.35071,31.558]}},{"type":"Feature","properties":{"country_code":"KOR","city":"Osan","geoname_id":"1839652","downloaders":"{\"size\":22382,\"mobile\":0,\"satellite\":0,\"tor\":0,\"tor_exit_nodes\":0,\"vpn\":268,\"relay\":0,\"proxy\":0,\"hosting\":0,\"service\":31}","uploaders":"{\"size\":29,\"mobile\":0,\"satellite\":0,\"tor\":0,\"tor_exit_nodes\":0,\"vpn\":0,\"relay\":0,\"proxy\":0,\"hosting\":0,\"service\":0}"},"geometry":{"type":"Point","coordinates":[127.07056,37.15222]}},{"type":"Feature","properties":{"country_code":"SAU","city":"Jeddah","geoname_id":"105343","downloaders":"{\"size\":22231,\"mobile\":3823,\"satellite\":0,\"tor\":0,\"tor_exit_nodes\":0,\"vpn\":112,\"relay\":0,\"proxy\":0,\"hosting\":111,\"service\":68}","uploaders":"{\"size\":254,\"mobile\":128,\"satellite\":0,\"tor\":0,\"tor_exit_nodes\":0,\"vpn\":15,\"relay\":0,\"proxy\":0,\"hosting\":17,\"service\":15}"},"geometry":{"type":"Point","coordinates":[39.18624,21.49012]}},